OSEBuildingID,DataYear,BuildingName,BuildingType,TaxParcelIdentificationNumber,Address,City,State,ZipCode,Latitude,Longitude,Neighborhood,CouncilDistrictCode,YearBuilt,NumberofFloors,NumberofBuildings,PropertyGFATotal,PropertyGFABuilding(s),PropertyGFAParking,ENERGYSTARScore,SiteEUIWN(kBtu/sf),SiteEUI(kBtu/sf),SiteEnergyUse(kBtu),SiteEnergyUseWN(kBtu),SourceEUIWN(kBtu/sf),SourceEUI(kBtu/sf),EPAPropertyType,LargestPropertyUseType,LargestPropertyUseTypeGFA,SecondLargestPropertyUseType,SecondLargestPropertyUseTypeGFA,ThirdLargestPropertyUseType,ThirdLargestPropertyUseTypeGFA,Electricity(kWh),SteamUse(kBtu),NaturalGas(therms),ComplianceStatus,ComplianceIssue,Electricity(kBtu),NaturalGas(kBtu),TotalGHGEmissions,GHGEmissionsIntensity
1,2021,MAYFLOWER PARK HOTEL,NonResidential,659000030,405 OLIVE WAY,SEATTLE,WA,98101,47.6122,-122.33799,DOWNTOWN,1,1927,12,1,88434,88434,0,78,73.80000305,73.59999847,6510477,6522024,144.3999939,144.1999969,Hotel,Hotel,88434,NA,,NA,,944955,1798672,14876,Compliant,No Issue,3224187,1487618,241.6,2.7
2,2021,PARAMOUNT HOTEL,NonResidential,659000220,724 PINE ST,SEATTLE,WA,98101,47.61307,-122.33361,DOWNTOWN,1,1996,11,1,103566,88502,15064,96,52.20000076,52.20000076,4617104,4617104,99.09999847,99.09999847,Hotel,Hotel,88502,Parking,15064,NA,,657478,0,23738,Compliant,No Issue,2243315,2373789,135.4,1.5
3,2021,WESTIN HOTEL (Parent Building),NonResidential,659000475,1900 5TH AVE,SEATTLE,WA,98101,47.61367,-122.33822,DOWNTOWN,1,1969,41,3,956110,759392,196718,96,46.5,46.5,43953212,43953212,105.3000031,105.3000031,Hotel,Hotel,945349,Parking,117783,Swimming Pool,0,8673722,10583473,37750,Compliant,No Issue,29594739,3775000,1201.4,1.6
5,2021,HOTEL MAX,NonResidential,659000640,620 STEWART ST,SEATTLE,WA,98101,47.61412,-122.33664,DOWNTOWN,1,1926,10,1,61320,61320,0,76,79.5,79.5,4873753,4873753,136,136,Hotel,Hotel,61320,NA,,NA,,509497,1167770,19676,Compliant,No Issue,1738403,1967580,208.6,3.4
8,2021,WARWICK SEATTLE HOTEL,NonResidential,659000970,401 LENORA ST,SEATTLE,WA,98121,47.61375,-122.34047,DOWNTOWN,1,1980,18,1,175580,113580,62000,90,92.40000153,92,11358936,11409090,161.5,161.1000061,Hotel,Hotel,123445,Parking,68009,Swimming Pool,0,1333597,0,68087,Compliant,No Issue,4550233,6808702,380.4,3.3
9,2021,WEST PRECINCT (SEATTLE POLICE),Nonresidential COS,660000560,810 VIRGINIA ST,SEATTLE,WA,98101,47.61623,-122.33657,DOWNTOWN,1,1999,2,1,97288,60090,37198,,192.8000031,193.6999969,9832419,9786934,430.7000122,433,Police Station,Police Station,50755,Parking,40971,NA,,1951866,0,31727,Compliant,No Issue,6659767,3172654,196.1,3.3
10,2021,CAMLIN WORLDMARK HOTEL,NonResidential,660000825,1619 9TH AVE,SEATTLE,WA,98101,47.6139,-122.33283,DOWNTOWN,1,1926,11,1,83008,83008,0,62,63.20000076,65.09999847,5403454,5250250,117.5,121.9000015,Hotel,Hotel,83008,NA,,NA,,744720,0,28625,Compliant,No Issue,2540985,2862470,162.5,2
11,2021,PARAMOUNT THEATER,NonResidential,660000955,901 PINE ST,SEATTLE,WA,98101,47.61327,-122.33136,DOWNTOWN,1,1926,8,1,102761,102761,0,,71.09999847,70.69999695,7262585,7306940,125.1999969,124.5999985,Other - Entertainment/Public Assembly,Other - Entertainment/Public Assembly,102761,NA,,NA,,758790,4248573,4250,Compliant,No Issue,2588992,425020,385.9,3.8
12,2021,COURTYARD BY MARRIOTT - PIONEER SQ,NonResidential,939000080,612 2ND AVE,SEATTLE,WA,98104,47.60294,-122.33263,DOWNTOWN,7,1904,15,1,163984,163984,0,82,75.30000305,74.90000153,12277663,12347007,139.6000061,139.1999969,Hotel,Hotel,163984,NA,,NA,,1662709,0,66045,Compliant,No Issue,5673163,6604500,374.2,2.3
13,2021,LYON BUILDING,Multifamily MR (5-9),939000105,607 3RD AVE,SEATTLE,WA,98104,47.60284,-122.33184,DOWNTOWN,1,1910,6,1,63712,62216,1496,23,82.59999847,82.5,4631289,4634404,167.6000061,167.5,Multifamily MR (5-9),Multifamily Housing,38407,Office,12139,Medical Office,5586,724208,1413117,7472,Compliant,No Issue,2470997,747176,167.2,2.7
15,2021,HOTEL MONACO,NonResidential,942000145,1101 4TH AVE,SEATTLE,WA,98101,47.60695,-122.33414,DOWNTOWN,1,1969,11,1,153163,133884,19279,45,86.90000153,87.19999695,13497188,13448151,175,175.3000031,Hotel,Hotel,154723,NA,,NA,,2104697,2556263,37597,Compliant,No Issue,7181226,3759700,441.6,3.3
16,2021,W SEATTLE HOTEL,NonResidential,942000165,1112 4TH AVE,SEATTLE,WA,98101,47.60738,-122.33362,DOWNTOWN,1,1998,25,1,333176,272015,61161,81,53.20000076,53.09999847,19576208,19600046,128.1000061,128,Hotel,Hotel,368583,Parking,46195,NA,,4386609,2852299,17568,Compliant,No Issue,14967110,1756800,392,1.4
17,2021,EXECUTIVE HOTEL PACIFIC,NonResidential,942000210,400 SPRING ST,SEATTLE,WA,98104,47.60699,-122.33346,DOWNTOWN,1,1928,9,1,65009,65009,0,67,69.30000305,69.30000305,4503616,4507556,112.9000015,112.6999969,Hotel,Hotel,65009,NA,,NA,,400961,1342543,17930,Compliant,No Issue,1368080,1792994,212.3,3.3
18,2021,CROWNE PLAZA,NonResidential,942000235,1113 6TH AVE,SEATTLE,WA,98101,47.60809,-122.33212,DOWNTOWN,1,1980,33,1,353111,295511,57600,95,47.20000076,47.20000076,13950985,13950985,113,113,Hotel,Hotel,295511,Parking,57600,NA,,3138801,0,32414,Compliant,No Issue,10709589,3241395,216.5,0.7
19,2021,HOTEL VINTAGE PARK,NonResidential,942000265,1100 5TH AVE,SEATTLE,WA,98101,47.60755,-122.33244,DOWNTOWN,1,1922,11,1,92190,66990,25200,56,85.5,86.69999695,5843675,5763304,160.1999969,163,Hotel,Hotel,67390,NA,,NA,,744987,2614080,6877,Compliant,No Issue,2541896,687700,264,3.9
21,2021,SEATTLE CENTRAL LIBRARY,Nonresidential COS,942000275,1000 4TH AVE,SEATTLE,WA,98104,47.60649,-122.33297,DOWNTOWN,1,2004,11,1,412000,355000,57000,,36.40000153,36.59999847,13394116,13333460,99.19999695,99.5,Library,Library,364913,Parking,49000,Data Center,1074,3729145,670274,0,Compliant,No Issue,12723843,0,108.3,0.3
22,2021,DOWNTOWN SEATTLE YMCA,NonResidential,942000350,909 4TH AVE,SEATTLE,WA,98104,47.60546,-122.33279,DOWNTOWN,1,1930,6,1,103911,103911,0,,69.19999695,68.90000153,7162932,7190027,147.6999969,147.3999939,Fitness Center/Health Club/Gym,Fitness Center/Health Club/Gym,61528,Office,32195,Other - Lodging/Residential,10188,1229274,2965422,32,Compliant,No Issue,4194283,3226,263.7,2.5
23,2021,RENAISSANCE MADISON HOTEL,NonResidential,942000430,515 MADISON ST,SEATTLE,WA,98104,47.60681,-122.33078,DOWNTOWN,7,1983,28,1,416281,331281,85000,77,67,67,23332322,23332322,146.8000031,146.8000031,Hotel,Hotel,348329,Parking,85000,NA,,4460230,0,81140,Compliant,No Issue,15218305,8114018,493.9,1.5
24,2021,RAINIER CLUB (HISTORICAL LANDMARK),NonResidential,942000510,810 4TH AVE,SEATTLE,WA,98104,47.60515,-122.33159,DOWNTOWN,1,1907,5,1,57452,57452,0,,105.3000031,105.1999969,6043709,6049763,205.3999939,205.3000031,Mixed Use Property,Social/Meeting Hall,16442,Restaurant,15505,Office,9741,871303,1618290,14525,Compliant,No Issue,2972887,1452532,223.8,3.9
25,2021,DOUBLE TREE ARCTIC CLUB HOTEL - SEATTLE,NonResidential,942000610,700 3RD AVE,SEATTLE,WA,98104,47.60376,-122.33194,DOWNTOWN,7,1916,10,1,104352,104352,0,91,58.5,58.5,6107224,6107224,119.8000031,119.8000031,Hotel,Hotel,104352,NA,,NA,,946552,2877026,6,Compliant,No Issue,3229637,561,252.2,2.4
26,2021,KING COUNTY COURTHOUSE,NonResidential,942000860,516 3RD AVE,SEATTLE,WA,98104,47.60265,-122.33051,DOWNTOWN,1,1916,10,1,540360,540360,0,42,118.5,117.9000015,63318804,63660368,216.5,215.8000031,Courthouse,Courthouse,501287,Barracks,35863,NA,,8277903,0,350746,Compliant,No Issue,28244205,35074600,1979.7,3.7
27,2021,KING COUNTY CORRECTIONAL FACILITY,NonResidential,942001010,500 5TH AVE,SEATTLE,WA,98104,47.60378,-122.32842,DOWNTOWN,1,1985,19,1,385274,385274,0,,129.6999969,128.8999939,43745240,43993560,214,213.1999969,Prison/Incarceration,Prison/Incarceration,339315,Parking,45959,NA,,4424835,0,286477,Compliant,No Issue,15097537,28647703,1583.9,4.1
28,2021,GRAHAM HILL ELEMENTARY SCHOOL (SPS-DISTRICT),SPS-District K-12,1102000138,5101 S GRAHAM ST,SEATTLE,WA,98118,47.54576,-122.26853,SOUTHEAST,1,1961,2,1,56228,56228,0,88,32.59999847,33.09999847,1845289,1815351,59.09999847,59.70000076,K-12 School,K-12 School,55715,NA,,NA,,232186,0,10531,Compliant,No Issue,792218,1053071,59.2,1.1
29,2021,WATERTOWN HOTEL,NonResidential,1142000755,4242 ROOSEVELT WAY NE,SEATTLE,WA,98105,47.65958,-122.31738,NORTHEAST,1,2001,6,1,88592,58006,30586,98,46.29999924,46.20000076,3129392,3137222,100.4000015,100.1999969,Hotel,Hotel,67770,Parking,30586,NA,,587322,0,11254,Compliant,No Issue,2003942,1125450,68.1,1.2
30,2021,CORNISH (Main Campus Center),NonResidential,660001420,1000 LENORA ST,SEATTLE,WA,98121,47.61816,-122.33629,DOWNTOWN,7,1928,7,1,126593,126593,0,,63.29999924,64.30000305,8035524,7915248,112.4000015,113.4000015,College/University,College/University,125000,NA,,NA,,960986,0,47566,Compliant,No Issue,3278884,4756641,266.2,2.1
32,2021,HOMEWOOD SUITES -SEATTLE - Hilton,NonResidential,660001832,1011 PIKE ST,SEATTLE,WA,98101,47.61301,-122.32929,EAST,1,1991,8,1,158676,128375,30301,56,64.40000153,64.40000153,9833682,9833682,128.8999939,128.8999939,Hotel,Hotel,152708,Parking,42000,Swimming Pool,0,1568110,0,44833,Compliant,No Issue,5350391,4483290,260.2,2
33,2021,SPRINGHILL SUITES SEATTLE DOWNTOWN,NonResidential,660002680,1800 YALE AVE,SEATTLE,WA,98101,47.61784,-122.32966,DOWNTOWN,1,2001,10,1,171866,133585,38281,70,73.5,73.5,9477854,9477854,159.8000031,159.8000031,Hotel,Hotel,128909,Parking,38301,NA,,1782723,0,33952,Compliant,No Issue,6082651,3395203,205.5,1.5
34,2021,MEANY MIDDLE SCHOOL (SPS-DISTRICT),SPS-District K-12,688000090,300 20TH AVE E,SEATTLE,WA,98112,47.62266,-122.30547,SHARED: CENTRAL & EAST,3,1955,1,1,126351,126351,0,32,57.40000153,58,6918559,6843525,89.40000153,90.09999847,K-12 School,K-12 School,119254,NA,,NA,,582772,0,49301,Compliant,No Issue,1988417,4930142,270.1,2.1
35,2021,HOTEL FIVE,NonResidential,697000170,2200 5TH AVE,SEATTLE,WA,98121,47.61558,-122.34186,DOWNTOWN,1,1978,5,1,68410,52210,16200,87,59.5,59.5,3108714,3108714,130.3999939,130.3999939,Hotel,Hotel,52210,Parking,15400,NA,,593665,0,10831,Compliant,No Issue,2025585,1083129,65.9,1.3
36,2021,JANE ADDAMS MIDDLE (SPS-DISTRICT),SPS-District K-12,752000170,11031 34TH AVE NE,SEATTLE,WA,98125,47.70994,-122.29301,NORTH,1,1949,2,1,160645,160645,0,58,49.79999924,50.79999924,8480687,8305799,69.80000305,70.90000153,K-12 School,K-12 School,166917,NA,,NA,,491984,0,68020,Compliant,No Issue,1678650,6802038,368.2,2.3
37,2021,JOHN HAY ELEMENTARY SCHOOL (SPS-DISTRICT),SPS-District K-12,809000005,201 GARFIELD ST,SEATTLE,WA,98109,47.6329,-122.35172,MAGNOLIA / QUEEN ANNE,7,1989,2,1,51582,51582,0,69,28.60000038,28.39999962,1561386,1571981,80.09999847,79.59999847,K-12 School,K-12 School,54946,NA,,NA,,457616,0,0,Compliant,No Issue,1561386,0,6.5,0.1
38,2021,GOOD SHEPHERD CENTER,NonResidential,825049102,4649 SUNNYSIDE AVE N,SEATTLE,WA,98103,47.6641,-122.33118,LAKE UNION,1,1906,3,1,87262,87262,0,,52.70000076,53.40000153,4189624,4134163,76.30000305,76.90000153,Office,Office,43615,K-12 School,23177,Other - Entertainment/Public Assembly,5919,273677,0,32558,Compliant,No Issue,933787,3255837,176.8,2
40,2021,SILVER CLOUD INN UNIVERSITY,NonResidential,925049117,5036 25TH AVE NE,SEATTLE,WA,98105,47.66583,-122.29965,NORTHEAST,1,1994,4,1,81871,81871,0,83,67.59999847,67.40000153,5520926,5535408,130.1999969,130.1000061,Hotel,Hotel,81871,NA,,NA,,812396,0,27490,Compliant,No Issue,2771896,2749031,157.5,1.9
41,2021,2746 NE 45TH ST - PUBLIC STORAGE,NonResidential,925049330,2746 NE 45TH ST,SEATTLE,WA,98105,47.66172,-122.29598,NORTHEAST,1,1955,2,1,26225,26225,0,,5.599999905,5.599999905,256698,255614,14.10000038,14.10000038,Self-Storage Facility,Self-Storage Facility,45574,NA,,NA,,62602,0,431,Compliant,No Issue,213598,43100,3.2,0.1
43,2021,BOEING PLANT 2 ISAL  (BLDG 2-122)-North Boeing Field Campus,Campus,22000005,1135 S WEBSTER ST,SEATTLE,WA,98108,47.53493,-122.31788,GREATER DUWAMISH,1,1992,3,1,2026324,2026324,0,,258.1000061,260.5,518003488,513240768,398,400.5,Mixed Use Property,Office,686180,Laboratory,639946,Non-Refrigerated Warehouse,480625,42283728,0,3737314,Compliant,No Issue,144272080,373731400,20445.7,10.1
50,2021,LAWTON ELEMENTARY SCHOOL (SPS-DISTRICT),SPS-District K-12,369000400,4017 26TH AVE W,SEATTLE,WA,98199,47.65671,-122.39047,MAGNOLIA / QUEEN ANNE,7,1990,2,1,54986,54986,0,63,39.20000076,39.59999847,2086557,2066342,81.69999695,82.59999847,K-12 School,K-12 School,52669,NA,,NA,,361504,0,8531,Compliant,No Issue,1233452,853105,50.4,0.9
51,2021,ECKSTEIN MIDDLE (SPS-DISTRICT),SPS-District K-12,425049022,3003 NE 75TH ST,SEATTLE,WA,98115,47.68252,-122.29498,NORTHEAST,4,1950,2,1,175565,175565,0,83,47.09999847,48.09999847,8630056,8463571,60.79999924,61.70000076,K-12 School,K-12 School,179513,NA,,NA,,338233,0,74760,Compliant,No Issue,1154052,7476004,401.8,2.3
52,2021,SALMON BAY CENTER 5305 & 5309,NonResidential,467000429,5305 SHILSHOLE AVE NW,SEATTLE,WA,98107,47.66587,-122.38476,BALLARD,1,1961,2,1,94900,94900,0,16,115.4000015,116.5,5781567,5727479,251.5,252.6000061,Office,Office,28055,Non-Refrigerated Warehouse,21562,NA,,1082384,0,20885,Compliant,No Issue,3693094,2088472,126.2,1.3
53,2021,EL CENTRO DE LA RAZA,NonResidential,570000340,2524 16TH AVE S,SEATTLE,WA,98144,47.58034,-122.31132,GREATER DUWAMISH,2,1900,2,1,52554,52554,0,78,47.70000076,48.40000153,2851998,2809572,73.80000305,74.5,Office,Office,51029,Other - Education,7849,NA,,232739,0,20579,Compliant,No Issue,794105,2057893,112.6,2.1
54,2021,BLANCHET HIGH SCHOOL,NonResidential,625049002,8200 WALLINGFORD AVE N,SEATTLE,WA,98103,47.68891,-122.33553,NORTHWEST,1,1954,3,1,175015,175015,0,77,46.20000076,45.70000076,8682372,8774814,74,73.5,K-12 School,K-12 School,190000,Parking,0,NA,,811954,0,59120,Not Compliant,Missing 2021 EUI or Electricity Data,2770388,5911984,325.4,1.9
55,2021,VINE ST MINI STORAGE,NonResidential,653000225,11 VINE ST,SEATTLE,WA,98121,47.61351,-122.35129,DOWNTOWN,1,1911,3,1,70586,70586,0,,28.20000076,28.60000038,2013577,1989550,58.90000153,59.29999924,Self-Storage Facility,Self-Storage Facility,42298,Vocational School,28197,NA,,346021,0,8330,Compliant,No Issue,1180624,832953,49.1,0.7
56,2021,HILTON SEATTLE,NonResidential,7802920020,1301 6TH AVE,SEATTLE,WA,98101,47.60946,-122.33337,DOWNTOWN,1,1969,24,1,332210,126240,205970,93,44.09999847,44.09999847,10348514,10348514,104.4000015,104.4000015,Hotel,Hotel,234630,Hotel,126240,NA,,2280785,0,25665,Compliant,No Issue,7782038,2566478,168.5,1.3
57,2021,5TH & PINE,NonResidential,1975700200,1513 5TH AVE,SEATTLE,WA,98101,47.6113,-122.33659,DOWNTOWN,1,1973,5,1,88717,88717,0,70,38.70000076,38.70000076,6566530,6566530,108.5,108.5,Office,Office,103855,Retail Store,65676,Data Center,493,1924540,0,0,Compliant,No Issue,6566530,0,27.2,0.3
"58,2021,CENTURY SQUARE RETAIL,NonResidential,1975700365,1525 4TH AVE,SEATTLE,WA,98101,47.61076,-122.33765,DOWNTOWN,1,1920,2,1,57428,57428,0,,22.10000038,22.10000038,1269108,1269108,60.59999847,60.59999847,Other - Mall,Other - Mall,57428,""Personal Services (Health/Beauty, Dry Cleaning, etc)"",0,NA,,359369,0,429,Compliant,No Issue,1226168,42940,7.4,0.1"
59,2021,GIBRALTAR TOWER,NonResidential,1975700380,1518 3RD AVE,SEATTLE,WA,98101,47.61048,-122.33794,DOWNTOWN,1,1910,8,1,59400,59400,0,,28.89999962,28.89999962,1589889,1589889,81,81,Office,Office,48366,Retail Store,6619,NA,,465970,0,0,Compliant,No Issue,1589889,0,6.6,0.1
60,2021,MANN BUILDING/WILD GINGER/TRIPLE DOOR,NonResidential,1975700525,1401 3RD AVE,SEATTLE,WA,98101,47.60886,-122.33744,DOWNTOWN,1,1926,2,1,52549,52549,0,,150.8000031,149.5,7841478,7911592,236.1999969,234.8000031,Mixed Use Property,Other - Entertainment/Public Assembly,23500,Restaurant,23500,Office,5459,683983,0,55077,Compliant,No Issue,2333751,5507728,302.2,5.8
61,2021,PALIHOTEL,NonResidential,1975700600,107 PINE ST,SEATTLE,WA,98101,47.60973,-122.34038,DOWNTOWN,1,1900,4,1,50510,50510,0,,,,,,,,Hotel,Hotel,46409,NA,,NA,,0,0,0,Not Compliant,Missing 2021 EUI or Electricity Data,0,0,0,0
62,2021,HOTEL THEODORE (ROOSEVELT),NonResidential,1976700010,1531 7TH AVE,SEATTLE,WA,98101,47.61233,-122.33432,DOWNTOWN,1,1930,20,1,98634,88591,10043,84,58.90000153,60.29999924,5467388,5340482,128.8999939,132.8000031,Hotel,Hotel,83591,Parking,10043,Restaurant,7057,1021968,1268105,7123,Compliant,No Issue,3486955,712327,157.5,1.8
63,2021,SHERATON GRAND SEATTLE - (Parent Building),Campus,1976700095,1400 6TH AVE,SEATTLE,WA,98101,47.61087,-122.33339,DOWNTOWN,1,1982,34,2,1083197,926614,156583,91,56.79999924,56.70000076,56395556,56446484,123.5,123.4000015,Hotel,Hotel,994212,Parking,117668,Swimming Pool,0,10504820,4869042,156841,Compliant,No Issue,35842446,15684081,1385.4,1.5
65,2021,INN AT THE MARKET,NonResidential,1977200050,86 PINE ST,SEATTLE,WA,98101,47.60997,-122.34138,DOWNTOWN,1,1985,7,1,71150,57420,13730,78,83.5,83.5,4792858,4792858,157.3999939,157.3999939,Hotel,Hotel,57420,Parking,13730,NA,,670922,0,25037,Compliant,No Issue,2289185,2503673,142.4,2.5
66,2021,MOORE HOTEL & THEATRE,NonResidential,1977201035,1926 2ND AVE,SEATTLE,WA,98101,47.61155,-122.34114,DOWNTOWN,1,1908,7,1,122810,122810,0,,32,32.90000153,4038437,3929823,43.5,44.40000153,Hotel,Hotel,90874,Other - Entertainment/Public Assembly,26450,Restaurant,5486,203938,0,33426,Compliant,No Issue,695837,3342600,180.4,1.5
68,2021,HOLIDAY INN - SEATTLE,NonResidential,1991200935,211 DEXTER AVE N,SEATTLE,WA,98109,47.62001,-122.34274,LAKE UNION,7,2000,7,1,150453,115718,34735,97,46.90000153,46.79999924,5411756,5423372,99.80000305,99.69999695,Hotel,Hotel,115718,Parking,34735,NA,,980748,0,20654,Compliant,No Issue,3346313,2065444,123.5,1.1
69,2021,FAIRFIELD INN,NonResidential,1991200940,226 AURORA AVE N,SEATTLE,WA,98109,47.62025,-122.34314,LAKE UNION,1,1997,6,1,116300,88100,28200,99,37.09999847,37.09999847,3279989,3279989,76.30000305,76.30000305,Hotel,Hotel,88490,NA,,NA,,554441,0,13882,Compliant,No Issue,1891754,1388235,81.6,0.9
70,2021,HOMEWOOD SUITES HOTEL - SEATTLE,NonResidential,1992200235,206 WESTERN AVE W,SEATTLE,WA,98119,47.62023,-122.35951,MAGNOLIA / QUEEN ANNE,1,1998,6,1,155602,118858,36744,63,56.90000153,56.90000153,6761224,6761224,121,121,Hotel,Hotel,118858,Parking,36744,NA,,1220259,0,25977,Compliant,No Issue,4163524,2597700,155.2,1.3
73,2021,SEATTLE HEBREW ACADEMY,NonResidential,2125049015,1617 INTERLAKEN DR E,SEATTLE,WA,98112,47.63442,-122.30793,EAST,1,1911,3,1,56072,56072,0,59,58.59999847,59.70000076,4006083,3928438,76.5,77.69999695,K-12 School,K-12 School,67064,NA,,NA,,168598,0,34308,Compliant,No Issue,575256,3430827,184.6,3.3
77,2021,FOUR POINTS SHERATON SEATTLE CENTER,NonResidential,2249000170,601 ROY ST,SEATTLE,WA,98109,47.62519,-122.34456,MAGNOLIA / QUEEN ANNE,1,1999,4,1,122942,78051,44891,100,33.09999847,33.09999847,2580550,2580550,69.80000305,69.80000305,Hotel,Hotel,78051,Parking,44891,NA,,458773,0,10152,Compliant,No Issue,1565333,1015217,60.4,0.8
82,2021,WA DEPT OF SOCIAL & HEALTH SERVICES (DSHS),NonResidential,2254501944,1700 E CHERRY ST,SEATTLE,WA,98122,47.60823,-122.30956,CENTRAL,1,1962,2,1,54984,54984,0,62,73.59999847,73.5,4042606,4047738,126.6999969,127.6999969,Office,Office,54984,NA,,NA,,464867,0,24565,Compliant,No Issue,1586126,2456480,137,2.5
84,2021,PROVIDENCE MT ST VINCENT,NonResidential,2324039001,4831 35TH AVE SW,SEATTLE,WA,98126,47.55837,-122.37751,SOUTHWEST,1,1922,5,1,371257,296313,74944,44,152.8000031,151.8000031,44967996,45263316,223.8999939,222.8000031,NA,Senior Living Community,296313,Parking,0,NA,,3149638,0,342214,Compliant,No Issue,10746565,34221428,1862,6.3
85,2021,FOSS HOME AND VILLAGE,NonResidential,2426039059,13023 GREENWOOD AVE N,SEATTLE,WA,98133,47.72426,-122.35599,NORTHWEST,1,1970,2,1,93397,93397,0,1,162.3999939,163,15225579,15165001,267.5,269.2999878,NA,Senior Living Community,93397,NA,,NA,,1535177,0,99876,Compliant,No Issue,5238024,9987555,552.1,5.9
86,2021,SCCA - ALLIANCE HOUSE,NonResidential,2467400430,207 PONTIUS AVE N,SEATTLE,WA,98109,47.61988,-122.33211,LAKE UNION,1,2008,6,1,84103,63371,20732,84,58.79999924,59,3737385,3728713,146.3000031,146.5,Hotel,Hotel,63371,Parking,20732,NA,,897133,0,6764,Compliant,No Issue,3061019,676366,48.6,0.8
87,2021,ARBOR HEIGHTS ELEMENTARY SCHOOL (SPS-DISTRICT),SPS-District K-12,2518400005,3701 SW 104TH ST,SEATTLE,WA,98146,47.5097,-122.37759,SOUTHWEST,1,2016,3,1,78972,78972,0,96,29.60000038,29.89999962,2689854,2659014,40.70000076,40.90000153,K-12 School,K-12 School,89973,NA,,NA,,359910,0,14618,Compliant,No Issue,1228011,1461843,82.7,1
89,2021,POLYCLINIC MEDICAL OFFICE (NORTH & SOUTH),NonResidential,1978201270,1200 HARVARD AVE,SEATTLE,WA,98122,47.61244,-122.3214,EAST,1,1965,3,2,329489,179014,150475,,174.3000031,174.5,20097586,20073396,321.7000122,322.2999878,Parking,Parking,150475,Medical Office,115149,NA,,2680829,0,109506,Compliant,No Issue,9146989,10950599,619.4,3.5
95,2021,SORRENTO HOTEL,NonResidential,1979200270,900 MADISON ST,SEATTLE,WA,98104,47.60898,-122.32693,EAST,1,1908,7,1,76631,76631,0,83,96.90000153,96.90000153,7426154,7426154,136.8000031,136.8000031,Hotel,Hotel,76631,NA,,NA,,449465,0,58926,Compliant,No Issue,1533576,5892578,319.3,4.2
96,2021,PUGET SOUND BLOOD CENTER,NonResidential,1979200290,921 TERRY AVE,SEATTLE,WA,98104,47.60845,-122.32637,EAST,1,1983,6,1,121099,96783,24316,30,137.3999939,138.6999969,13427937,13293625,303.1000061,307.5,Medical Office,Medical Office,96783,Parking,24316,NA,,2497391,4906839,0,Compliant,No Issue,8521098,0,442.6,4.6
100,2021,CITY PLACE III (Obidos/Rufus),NonResidential,1983200325,551 BOREN AVE N,SEATTLE,WA,98109,47.62424,-122.33646,LAKE UNION,1,2010,5,2,438093,287367,150726,,,,,,,,NA,NA,,NA,,NA,,0,0,0,Contact the Help Desk,Unknown - Contact the Help Desk,0,0,0,0
102,2021,MARRIOTT RESIDENCE INN,NonResidential,1984200065,800 FAIRVIEW AVE N,SEATTLE,WA,98109,47.62642,-122.33325,LAKE UNION,1,1990,7,1,282863,238097,44766,82,70.69999695,70.90000153,16931560,16890682,132.8999939,133.1000061,Hotel,Hotel,238793,Parking,51537,NA,,2344105,0,89335,Compliant,No Issue,7998086,8933474,507.5,2.1
104,2021,BAGLEY WRIGHT THEATER - SEATTLE CENTER,Nonresidential COS,1985200003,305 HARRISON ST,SEATTLE,WA,98109,47.62141,-122.35086,MAGNOLIA / QUEEN ANNE,1,1962,1,1,65127,65127,0,,70.5,70.09999847,4554484,4584359,150.3000031,149.6999969,Other,Other,65000,NA,,NA,,781774,1861640,0,Compliant,No Issue,2667414,0,165.6,2.5
106,2021,ARMORY - SEATTLE CENTER,Nonresidential COS,1985200305,305 HARRISON ST,SEATTLE,WA,98109,47.62141,-122.35086,MAGNOLIA / QUEEN ANNE,1,1938,5,1,396085,396085,0,,22.89999962,22.79999924,6343064,6368135,52.79999924,52.59999847,Other,Other,278500,NA,,NA,,1290294,1940580,0,Compliant,No Issue,4402483,0,179.3,0.5
107,2021,CITY PLACE IV (Ruby/Dawson),NonResidential,1986200410,301 BOREN AVE N,SEATTLE,WA,98109,47.62112,-122.33629,LAKE UNION,7,2010,12,1,571329,571329,0,84,49.59999847,49.59999847,28353604,28353604,129.6000061,129.6000061,Office,Office,544487,Parking,190000,College/University,21819,7412016,0,30638,Compliant,No Issue,25289799,3063806,267.3,0.5
110,2021,EXHIBITION HALL - SEATTLE CENTER,Nonresidential COS,1988200440,301 MERCER ST,SEATTLE,WA,98109,47.62395,-122.35143,MAGNOLIA / QUEEN ANNE,1,1962,2,1,52000,52000,0,,,,,,,,Social/Meeting Hall,Social/Meeting Hall,54981,NA,,NA,,,,,Compliant,No Issue,1668195,0,0,0
112,2021,MCCAW HALL - SEATTLE CENTER,Nonresidential COS,1988200700,225 MERCER ST,SEATTLE,WA,98109,47.62395,-122.35143,MAGNOLIA / QUEEN ANNE,1,1928,2,1,262048,262048,0,,,,,,,,Performing Arts,Performing Arts,296000,NA,,NA,,,,,Compliant,No Issue,9391714,114804,0,0
113,2021,KCTS 9,NonResidential,1988200705,401 MERCER ST,SEATTLE,WA,98109,47.62391,-122.34837,MAGNOLIA / QUEEN ANNE,1,1986,2,1,66240,63888,2352,,53.70000076,53.70000076,2986294,2986294,150.3000031,150.3000031,Other,Other,55632,Parking,0,NA,,875233,0,0,Compliant,No Issue,2986294,0,12.4,0.2
114,2021,BILL & MELINDA GATES FOUNDATION,NonResidential,1988201155,500 5TH AVE N,SEATTLE,WA,98109,47.62419,-122.34443,MAGNOLIA / QUEEN ANNE,1,2010,6,1,920598,616891,303707,82,57.5,57.70000076,42478444,42265960,119.5999985,119.9000015,Office,Office,729584,Parking,185014,Other,6000,7302434,0,175625,Compliant,No Issue,24915905,17562541,1035.8,1.7
115,2021,SCRIPPS BUILDING - 221 FIRST AVENUE WEST,NonResidential,1989200850,221 1ST AVE W,SEATTLE,WA,98119,47.62053,-122.35842,MAGNOLIA / QUEEN ANNE,1,1970,4,1,76213,50283,25930,73,61.70000076,62.29999924,3174528,3143250,133.8000031,134.5,Office,Office,48546,Parking,21454,Other,2406,589281,0,11639,Compliant,No Issue,2010627,1163901,70.1,1.4
116,2021,THE MEDITERRANEAN INN,NonResidential,1989201125,425 QUEEN ANNE AVE N,SEATTLE,WA,98109,47.62291,-122.35708,MAGNOLIA / QUEEN ANNE,1,2002,6,1,127200,81560,45640,83,56.20000076,56.20000076,4586302,4586302,108.0999985,108.0999985,Hotel,Hotel,79696,Parking,45640,Other - Restaurant/Bar,1864,670251,0,22994,Compliant,No Issue,2286897,2299405,131.6,1.6
117,2021,UNIVERSITY INN,NonResidential,1142001871,4140 ROOSEVELT WAY NE,SEATTLE,WA,98105,47.65772,-122.31756,NORTHEAST,1,1962,4,2,71403,60953,10450,70,66.30000305,66.30000305,4041396,4041396,113.0999985,113.0999985,Hotel,Hotel,52953,Restaurant,8000,Parking,0,444008,0,25264,Compliant,No Issue,1514956,2526440,140.4,2.3
118,2021,PATHFINDER/COOPER SCHOOL (SPS-DISTRICT),SPS-District K-12,1324039116,1901 SW GENESEE ST,SEATTLE,WA,98106,47.5636,-122.358,DELRIDGE NEIGHBORHOODS,1,1999,3,1,75364,75364,0,70,37.59999847,37.40000153,2697900,2711626,82.19999695,82,K-12 School,K-12 School,72120,NA,,NA,,516008,0,9373,Compliant,No Issue,1760618,937281,57.1,0.8
119,2021,ST JOSEPH K-8 SCHOOL,NonResidential,1336800825,700 18TH AVE E,SEATTLE,WA,98112,47.62548,-122.30828,EAST,1,1923,3,1,67743,67743,0,42,44.90000153,45.90000153,3106536,3042820,76.40000153,77.40000153,K-12 School,K-12 School,67743,NA,,NA,,331616,0,19751,Compliant,No Issue,1131475,1975061,109.6,1.6
120,2021,HOLY NAMES ACADEMY,NonResidential,1338800660,728 21ST AVE E,SEATTLE,WA,98112,47.62644,-122.30429,EAST,1,1908,6,1,168239,161514,6725,89,48.09999847,48.70000076,7807316,7707447,78.5,79.19999695,K-12 School,K-12 School,160225,Parking,85875,NA,,751440,0,52434,Compliant,No Issue,2563915,5243402,289.1,1.8
121,2021,THE 2100 BUILDING,NonResidential,1498303116,2100 24TH AVE S,SEATTLE,WA,98144,47.58408,-122.30125,SOUTHEAST,1,2003,3,1,99433,63681,35752,22,76.40000153,77,4903581,4864678,213.8999939,215.6000061,Office,Office,63681,Parking,35752,NA,,1437157,0,0,Compliant,No Issue,4903580,0,20.3,0.3
122,2021,MUIR ELEMENTARY SCHOOL(SPS-DISTRICT),SPS-District K-12,1524049002,3301 S HORTON ST,SEATTLE,WA,98144,47.57324,-122.29058,SOUTHEAST,1,1991,2,1,60725,60725,0,40,37.70000076,38.09999847,2232419,2207124,105.5,106.6999969,K-12 School,K-12 School,58602,NA,,NA,,654284,0,0,Compliant,No Issue,2232419,0,9.2,0.2
125,2021,MERCER MIDDLE (SPS-DISTRICT),SPS-District K-12,1624049214,1600 S COLUMBIAN WAY,SEATTLE,WA,98108,47.56413,-122.31208,GREATER DUWAMISH,1,1957,1,1,130862,130862,0,54,54.20000076,54.90000153,7850571,7752654,82.59999847,83.09999847,K-12 School,K-12 School,142925,NA,,NA,,608678,0,57738,Compliant,No Issue,2076811,5773760,315.2,2.4
127,2021,ORCA AT WHITWORTH ELEMENTARY SCHOOL (SPS-DISTRICT),SPS-District K-12,1704900242,5215 46TH AVE S,SEATTLE,WA,98118,47.55478,-122.27596,SOUTHEAST,2,1989,3,1,59955,59955,0,62,30.89999962,30.79999924,1886652,1892180,80.30000305,79.90000153,K-12 School,K-12 School,61327,NA,,NA,,489110,0,2178,Compliant,No Issue,1668843,217809,18.5,0.3
130,2021,MCCLURE MIDDLE (SPS-DISTRICT),SPS-District K-12,1794501220,1915 1ST AVE W,SEATTLE,WA,98119,47.63683,-122.35896,MAGNOLIA / QUEEN ANNE,1,1964,2,1,93218,93218,0,70,40.90000153,41.70000076,3933145,3857994,63.5,64.40000153,K-12 School,K-12 School,94263,NA,,NA,,324610,0,28256,Compliant,No Issue,1107570,2825575,154.6,1.7
131,2021,CENTURYLINK: LAKEVIEW MAIN,NonResidential,1797500625,1208 NE 64TH ST,SEATTLE,WA,98115,47.67524,-122.31534,NORTHEAST,1,1941,4,1,56521,56521,0,,90.40000153,90.40000153,5108734,5108734,253.1000061,253.1000061,Data Center,Data Center,41572,Office,14949,NA,,1497285,0,0,Compliant,No Issue,5108736,0,21.1,0.4
132,2021,ROOSEVELT SQUARE,NonResidential,1797500715,6417 ROOSEVELT WAY NE,SEATTLE,WA,98115,47.67559,-122.31769,NORTHEAST,1,1929,2,1,228385,128315,100070,88,110.5999985,110.9000015,14347799,14315592,286.1000061,286.2999878,Supermarket/Grocery Store,Supermarket/Grocery Store,129396,Parking,0,NA,,3681650,0,17860,Compliant,No Issue,12561790,1786009,146.8,1.1
136,2021,KING COUNTY- MARY PILGRIM HOUSING,NonResidential,1926049012,14115 AURORA AVE N,SEATTLE,WA,98133,47.73141,-122.3458,NORTHWEST,1,2001,4,1,51390,51390,0,,,,,,,,Multifamily Housing,Multifamily Housing,51390,NA,,NA,,0,0,0,Not Compliant,Portfolio Manager Account Not Shared,0,0,0,0
137,2021,BROADVIEW THOMSON K-8 (SPS-DISTRICT),SPS-District K-12,1926049025,13052 GREENWOOD AVE N,SEATTLE,WA,98133,47.72463,-122.35315,NORTHWEST,1,1963,2,1,131013,131013,0,86,41.29999924,41.29999924,5475432,5475432,65.19999695,65.19999695,K-12 School,K-12 School,132672,NA,,NA,,486345,0,38160,Compliant,No Issue,1659411,3816022,209.5,1.6
138,2021,INGRAHAM HIGH (SPS-DISTRICT),SPS-District K-12,1926049321,1819 N 135TH ST,SEATTLE,WA,98133,47.7257,-122.33684,NORTHWEST,1,1959,1,1,245587,245587,0,80,52.70000076,54.29999924,14620431,14188849,77.80000305,79.5,K-12 School,K-12 School,269361,NA,,NA,,1015398,0,111559,Compliant,No Issue,3464538,11155894,606.8,2.5
139,2021,KING COUNTY- NORTHGATE HOUSING,NonResidential,1926049434,13300 STONE AVE N,SEATTLE,WA,98133,47.72529,-122.34115,NORTHWEST,1,2002,3,1,69138,69138,0,,,,,,,,NA,NA,,NA,,NA,,0,0,0,Compliant,No Issue,0,0,0,0
140,2021,B F DAY ELEMENTARY (SPS-DISTRICT),SPS-District K-12,1931301145,3921 LINDEN AVE N,SEATTLE,WA,98103,47.65464,-122.34912,LAKE UNION,1,1991,3,1,66588,66588,0,44,38,38.59999847,2518555,2478592,106.5,108.1999969,K-12 School,K-12 School,65188,NA,,NA,,738146,0,0,Compliant,No Issue,2518555,0,10.4,0.2
141,2021,HUGHES ELEMENTARY SCHOOL (SPS-DISTRICT),SPS-District K-12,1932300245,7740 34TH AVE SW,SEATTLE,WA,98126,47.53284,-122.37493,DELRIDGE NEIGHBORHOODS,1,1926,3,0,44324,44324,0,,33.79999924,34.29999924,1742902,1713238,67.59999847,68.40000153,K-12 School,K-12 School,50742,NA,,NA,,275093,0,8043,Compliant,No Issue,938617,804285,46.6,1.1
142,2021,SEATTLE PACIFIC UNIVERSITY - Royal Brougham Pavilion,NonResidential,1972204390,3414 3RD AVE W,SEATTLE,WA,98119,47.65115,-122.36037,MAGNOLIA / QUEEN ANNE,1,1927,2,0,82746,82746,0,,105,106.4000015,8804385,8686226,192.8999939,194.3999939,College/University,College/University,82746,NA,,NA,,1145847,0,48948,Compliant,No Issue,3909630,4894757,276.1,3.3
144,2021,ALEXIS HOTEL,NonResidential,1974600035,1007 1ST AVE,SEATTLE,WA,98104,47.6048,-122.3368,DOWNTOWN,1,1904,5,2,182237,169037,13200,100,19.5,19.5,3715154,3715147,48.09999847,48,Hotel,Hotel,169037,Enclosed Mall,21943,NA,,883273,0,7014,Compliant,No Issue,3013727,701427,49.7,0.3
145,2021,BENAROYA HALL,Nonresidential COS,1974700025,1301 3RD AVE,SEATTLE,WA,98101,47.60804,-122.3367,DOWNTOWN,1,1998,6,1,174000,174000,0,,62.70000076,63.09999847,10884942,10812162,136.3999939,136.8999939,Mixed Use Property,Performing Arts,163031,Parking,153719,Social/Meeting Hall,9380,1929580,4228428,728,Compliant,No Issue,6583727,72787,382.1,2.2
147,2021,SWEDISH MEDICAL CENTER BALLARD - CAMPUS,Campus,2767703875,5300 TALLMAN AVE NW,SEATTLE,WA,98107,47.66737,-122.37956,BALLARD,1,1954,5,2,451526,302661,148865,39,,211.1999969,63914268,,,398.8999939,Hospital (General Medical & Surgical),Hospital (General Medical & Surgical),302661,Parking,148865,NA,,8979041,0,332778,Compliant,No Issue,30636488,33277781,1894.1,6.3
163,2021,FIRE STATION 10/FAC/EOC,Nonresidential COS,5247801465,400 S WASHINGTON ST,SEATTLE,WA,98104,47.60102,-122.32873,DOWNTOWN,1,2006,4,1,61156,61156,0,,139.1000061,140.3999939,8135582,8063754,332.8999939,335.3999939,Fire Station,Fire Station,30301,Office,27659,NA,,1825424,0,19072,Compliant,No Issue,6228347,1907236,127.1,2.1
167,2021,WING LUKE MUSEUM/KONG YICK BLDG.,NonResidential,5247802715,719 S KING ST,SEATTLE,WA,98104,47.59809,-122.32283,DOWNTOWN,1,1910,4,1,72820,59000,13820,,24.89999962,25.79999924,1470972,1419950,55.40000153,57.40000153,Museum,Museum,57063,NA,,NA,,290131,0,4810,Compliant,No Issue,989927,481045,29.6,0.5
168,2021,HAMPTON INN & SUITES,NonResidential,5458300285,700 5TH AVE N,SEATTLE,WA,98109,47.62614,-122.3467,MAGNOLIA / QUEEN ANNE,1,1996,4,1,162222,148022,14200,100,34.70000076,34.70000076,3944963,3944963,81.5,81.5,Hotel,Hotel,113702,Parking,40911,NA,,858213,0,10167,Compliant,No Issue,2928224,1016739,66.1,0.4
169,2021,FRANKLIN HIGH SCHOOL (SPS-DISTRICT),SPS-District K-12,5700000455,3013 S MOUNT BAKER BLVD,SEATTLE,WA,98144,47.57589,-122.29365,SOUTHEAST,1,1990,4,1,289588,289588,0,89,27.79999924,28.10000038,7445262,7383257,66.59999847,66.80000305,K-12 School,K-12 School,265346,NA,,NA,,1660458,0,17798,Compliant,No Issue,5665483,1779780,118,0.4
170,2021,SEATTLE CENTRAL COLLEGE - FINE ARTS BLDG,NonResidential,6003000470,801 E PINE ST,SEATTLE,WA,98122,47.61495,-122.32177,EAST,1,1915,3,1,64820,64820,0,,34.70000076,34.40000153,2226924,2248284,70.5,70,College/University,College/University,50820,Performing Arts,14000,NA,,367963,0,9714,Compliant,No Issue,1255489,971435,56.8,0.9
172,2021,SOUTH SEATTLE COLLEGE - CAMPUS MASTER ID,Campus,6171900005,6000 16TH AVE SW,SEATTLE,WA,98106,47.547,-122.35307,DELRIDGE NEIGHBORHOODS,1,1970,2,27,529343,529343,0,,46.59999847,47,24897808,24675750,95.59999847,95.80000305,College/University,College/University,529343,NA,,NA,,4117730,0,108481,Compliant,No Issue,14049695,10848112,634.3,1.2
173,2021,SEATTLE CHILDREN'S HOSPITAL (ADMIN BLDG),NonResidential,6418100005,6901 SAND POINT WAY NE,SEATTLE,WA,98115,47.67836,-122.26442,NORTHEAST,1,2002,2,1,96300,96300,0,,78.69999695,79,7609552,7578446,187.6999969,188.6000061,Office,Office,96300,Data Center,0,NA,,1703582,0,17969,Compliant,No Issue,5812622,1796931,119.5,1.2
"174,2021,CSC Vehicle Maintenance (E),Nonresidential COS,6834700175,805 S DEARBORN ST,SEATTLE,WA,98134,47.59545,-122.32146,GREATER DUWAMISH,1,1950,1,1,67356,67356,0,,86.5,88.59999847,6003499,5864142,140,142.6000061,""Repair Services (Vehicle, Shoe, Locksmith, etc)"",""Repair Services (Vehicle, Shoe, Locksmith, etc)"",67772,NA,,NA,,563320,0,40815,Compliant,No Issue,1922047,4081452,224.7,3.3"
175,2021,GARFIELD HIGH (SPS-DISTRICT),SPS-District K-12,6840701230,400 23RD AVE,SEATTLE,WA,98122,47.60598,-122.30156,CENTRAL,1,2008,3,1,254523,254523,0,48,64.30000305,65,16600766,16419917,112.3000031,113,K-12 School,K-12 School,255419,NA,,NA,,1915838,0,100639,Compliant,No Issue,6536839,10063928,561.5,2.2
176,2021,EMERSON ELEMENTARY SCHOOL (SPS-DISTRICT),SPS-District K-12,7129302300,9709 60TH AVE S,SEATTLE,WA,98118,47.51482,-122.25864,SOUTHEAST,1,2001,3,1,78804,78804,0,42,58.79999924,59.09999847,4661040,4635855,94.80000305,95.19999695,K-12 School,K-12 School,78804,NA,,NA,,436291,0,31724,Compliant,No Issue,1488625,3172416,174.6,2.2
177,2021,MADRONA SCHOOL (SPS-DISTRICT),SPS-District K-12,7152200350,1121 33RD AVE,SEATTLE,WA,98122,47.61224,-122.29087,CENTRAL,1,2002,3,1,66994,66994,0,47,46.70000076,46.5,3166253,3180529,102.5999985,102.4000015,K-12 School,K-12 School,68127,NA,,NA,,611624,0,10794,Compliant,No Issue,2086859,1079394,66,1
178,2021,VAN ASSELT ELEMENTARY @ AAA  (SPS-DISTRICT),SPS-District K-12,7243500230,8311 BEACON AVE S,SEATTLE,WA,98118,47.52915,-122.28904,GREATER DUWAMISH,1,2000,3,1,98357,98357,0,73,41.29999924,41.90000153,4319249,4261144,72.80000305,73.40000153,K-12 School,K-12 School,103166,NA,,NA,,507924,0,25862,Compliant,No Issue,1733036,2586213,144.5,1.5
179,2021,UNION GOSPEL MISSION ASSN - ADMIN BUILDING,NonResidential,7378600265,3800 S OTHELLO ST,SEATTLE,WA,98118,47.53827,-122.28406,GREATER DUWAMISH,1,1958,1,1,54765,54765,0,11,73.09999847,74.19999695,4065796,4000678,171.6999969,174.8000031,Worship Facility,Worship Facility,29000,Office,25765,NA,,888707,0,10335,Compliant,No Issue,3032268,1033529,67.4,1.2
180,2021,UNION GOSPEL MISSION ASSN / HOPE PLACE,NonResidential,7378600265,3802 S OTHELLO ST,SEATTLE,WA,98118,47.53722,-122.284,GREATER DUWAMISH,2,2009,5,1,89821,89821,0,,16.39999962,16.29999924,1448529,1461816,18.39999962,18.20000076,Other - Lodging/Residential,Other - Lodging/Residential,46483,Office,37938,Food Service,4579,16696,0,13916,Compliant,No Issue,56967,1391562,74.1,0.8
182,2021,SEATTLE PACIFIC UNIVERSITY - Otto Miller Hall,NonResidential,7443000070,3469 3RD AVE W,SEATTLE,WA,98119,47.65147,-122.36122,MAGNOLIA / QUEEN ANNE,1,1980,2,1,52611,52611,0,,118.1999969,119.8000031,6300282,6217258,201.5,203.1999969,College/University,College/University,52611,NA,,NA,,682118,0,39729,Compliant,No Issue,2327388,3972894,220.6,4.2
"183,2021,""EMERSON HALL, SEATTLE PACIFIC UNIVERSITY"",Multifamily LR (1-4),7443000375,362 W EMERSON ST,SEATTLE,WA,98119,47.65068,-122.36331,MAGNOLIA / QUEEN ANNE,7,2001,4,1,139600,102100,37500,88,42.70000076,42.40000153,3915099,3942811,89.59999847,89.09999847,Multifamily LR (1-4),Residence Hall/Dormitory,92287,Parking,43233,NA,,688423,0,15662,Not Compliant,Account Requires Verification,2348900,1566199,92.9,0.9"
185,2021,NATHAN HALE HIGH (SPS-DISTRICT),SPS-District K-12,2826049152,10750 30TH AVE NE,SEATTLE,WA,98125,47.70763,-122.29453,NORTH,1,2011,2,1,236758,236758,0,79,38.09999847,38.20000076,9361048,9336612,68,68.09999847,K-12 School,K-12 School,244739,Parking,0,NA,,1143873,0,54582,Compliant,No Issue,3902895,5458154,306,1.3
189,2021,GREENWOOD ELEMENTARY (SPS-DISTRICT),SPS-District K-12,2919200635,144 NW 80TH ST,SEATTLE,WA,98117,47.68725,-122.35996,NORTHWEST,6,2002,3,1,62526,62526,0,59,49.40000153,49.79999924,3031342,3007912,83.59999847,84,K-12 School,K-12 School,60834,NA,,NA,,323118,0,19289,Compliant,No Issue,1102479,1928862,107,1.7
190,2021,WEBSTER ST BUILDING (CEDAR GROVE),NonResidential,2924049043,7343 E MARGINAL WAY S,SEATTLE,WA,98108,47.536,-122.31768,GREATER DUWAMISH,1,2007,3,1,64015,64015,0,51,45.79999924,46.09999847,2796523,2778342,108.3000031,108.5999985,Non-Refrigerated Warehouse,Non-Refrigerated Warehouse,36200,Office,24419,NA,,611034,0,7117,Compliant,No Issue,2084850,711673,46.4,0.7
194,2021,NORTHGATE MALL SHOPPING CENTER RETAIL STORES  - ACTIVE/PRIMARY ID,Campus,2926049025,401 NE NORTHGATE WAY,SEATTLE,WA,98125,47.70759,-122.3255,NORTH,5,1951,1,1,530039,530039,0,100,14.19999981,14.30000019,7560273,7511966,29.89999962,30,Retail Store,Retail Store,505103,Restaurant,24936,NA,,1333552,0,30102,Compliant,No Issue,4550079,3010194,178.7,0.3
198,2021,SEATTLE CHILDREN'S HOSPITAL  (MAIN CAMPUS),Campus,2982800005,4800 SAND POINT WAY NE,SEATTLE,WA,98105,47.66231,-122.28146,NORTHEAST,1,1953,10,10,879000,879000,0,29,255.1000061,257,230595392,228875744,464.5,468.7000122,Hospital (General Medical & Surgical),Hospital (General Medical & Surgical),897371,NA,,NA,,29886780,0,1286217,Compliant,No Issue,101973693,128621688,7253,8.3
200,2021,Verity Credit Union,NonResidential,3026049024,11027 MERIDIAN AVE N,SEATTLE,WA,98133,47.70956,-122.3345,NORTHWEST,1,1996,3,1,55442,39017,16425,80,81.19999695,81.59999847,3043150,3028669,160.8000031,161.1999969,Financial Office,Financial Office,28636,Medical Office,8644,Medical Office,8644,471157,0,14356,Compliant,No Issue,1607587,1435563,82.9,2.1
205,2021,BALLARD HIGH (SPS-DISTRICT),SPS-District K-12,3050700050,1418 NW 65TH ST,SEATTLE,WA,98117,47.67661,-122.37489,BALLARD,1,1999,2,1,242795,242795,0,60,44.79999924,44.40000153,11100223,11192373,101.4000015,100.6999969,K-12 School,K-12 School,249963,NA,,NA,,2261555,0,33838,Compliant,No Issue,7716426,3383796,211.6,0.9
209,2021,SEATTLE UNIVERSITY - Madison Building (MADI),NonResidential,3225049002,1125 12TH AVE,SEATTLE,WA,98122,47.61239,-122.31708,EAST,1,1910,5,1,84870,84870,0,,32.09999847,32.20000076,2717686,2713580,49.79999924,49.90000153,Self-Storage Facility,Self-Storage Facility,74705,Retail Store,9752,NA,,227693,0,19408,Compliant,No Issue,776888,1940798,106.3,1.3
211,2021,NORTH SEATTLE COLLEGE - CAMPUS,Campus,3226049021,9600 COLLEGE WAY N,SEATTLE,WA,98103,47.69936,-122.33401,NORTHWEST,1,1970,2,11,694072,582447,111625,,51.09999847,50.90000153,33233874,33352704,124,123.5,College/University,College/University,653167,NA,,NA,,7662266,0,70902,Compliant,No Issue,26143652,7090223,484.7,0.8
212,2021,AKI KUROSE MIDDLE (SPS-DISTRICT),SPS-District K-12,3332501090,3928 S GRAHAM ST,SEATTLE,WA,98118,47.54632,-122.28198,SOUTHEAST,1,1952,2,1,173185,173185,0,59,58.09999847,57.40000153,9844954,9959111,74.69999695,74,K-12 School,K-12 School,171523,NA,,NA,,394063,0,85004,Compliant,No Issue,1344542,8500411,457,2.6
214,2021,BOREN STEM K-8 (SPS-DISTRICT),SPS-District K-12,3438501230,5950 DELRIDGE WAY SW,SEATTLE,WA,98106,47.54862,-122.36214,DELRIDGE NEIGHBORHOODS,1,1963,1,1,145341,145341,0,66,50.40000153,51.5,6153314,6029036,77.69999695,78.80000305,K-12 School,K-12 School,119514,NA,,NA,,495417,0,44630,Compliant,No Issue,1690364,4462950,244,1.7
215,2021,RAINIER BOTTLING PLANT,NonResidential,3466800065,5628 AIRPORT WAY S,SEATTLE,WA,98108,47.55152,-122.31869,GREATER DUWAMISH,1,1904,4,1,114297,114297,0,,,,,,,,Manufacturing/Industrial Plant,Manufacturing/Industrial Plant,114297,Parking,0,NA,,0,0,0,Not Compliant,Missing 2021 EUI or Electricity Data,0,0,0,0
216,2021,RAINIER BEACH HIGH SCHOOL (SPS-DISTRICT),SPS-District K-12,3524049149,8815 SEWARD PARK AVE S,SEATTLE,WA,98118,47.52407,-122.26586,SOUTHEAST,2,1960,2,1,184125,184125,0,83,38.70000076,38.70000076,7337896,7337896,63.20000076,63.20000076,K-12 School,K-12 School,189592,NA,,NA,,717693,0,48891,Compliant,No Issue,2448769,4889128,269.8,1.5
217,2021,WHITMAN MIDDLE (SPS-DISTRICT),SPS-District K-12,3526039131,9201 15TH AVE NW,SEATTLE,WA,98117,47.69675,-122.3776,BALLARD,1,1959,1,1,160270,160270,0,76,47.09999847,48.09999847,6966986,6827257,66.69999695,67.69999695,K-12 School,K-12 School,144936,NA,,NA,,418904,0,55377,Compliant,No Issue,1429302,5537684,300,1.9
220,2021,SODO ROW,NonResidential,3573700006,4786 1ST AVE S,SEATTLE,WA,98134,47.55901,-122.33328,GREATER DUWAMISH,1,1937,1,1,234144,234144,0,98,11,11,2566324,2569846,11.5,11.5,Non-Refrigerated Warehouse,Non-Refrigerated Warehouse,234144,NA,,NA,,28,0,25662,Compliant,No Issue,97,2566228,136.3,0.6
223,2021,WESTWOOD VILLAGE - BLDG A,NonResidential,3624039009,2600 SW BARTON ST,SEATTLE,WA,98126,47.52254,-122.36627,DELRIDGE NEIGHBORHOODS,1,1966,1,1,64984,64984,0,,39.20000076,39.59999847,2581250,2554974,93.40000153,93.80000305,Retail Store,Retail Store,65195,NA,,NA,,570470,0,6348,Compliant,No Issue,1946444,634806,41.8,0.6
224,2021,WESTWOOD VILLAGE - BLDG B,NonResidential,3624039009,2600 SW BARTON ST,SEATTLE,WA,98126,47.52254,-122.36627,DELRIDGE NEIGHBORHOODS,1,1965,1,1,67745,67745,0,,110.5999985,109.9000015,7444998,7493920,145.3999939,144.6999969,Retail Store,Retail Store,67763,NA,,NA,,332386,0,63109,Compliant,No Issue,1134101,6310897,339.9,5
225,2021,DENNY/ SEALTH CAMPUS (SPS-DISTRICT),SPS-District K-12,3624039032,2500 SW THISTLE ST,SEATTLE,WA,98106,47.52915,-122.36511,DELRIDGE NEIGHBORHOODS,1,2010,2,1,367884,367884,0,74,43.20000076,43.40000153,16180345,16112236,78.30000305,78.5,K-12 School,K-12 School,372897,NA,,NA,,2055274,0,91678,Compliant,No Issue,7012595,9167751,515.9,1.4
226,2021,ROXHILL ELEMENTARY SCHOOL(SPS-DISTRICT),SPS-District K-12,3624039057,9450 30TH AVE SW,SEATTLE,WA,98126,47.51778,-122.37074,DELRIDGE NEIGHBORHOODS,1,1958,1,1,46797,46797,0,76,58.20000076,59.20000076,2588721,2545954,78.90000153,80,K-12 School,K-12 School,43744,NA,,NA,,130550,0,21433,Compliant,No Issue,445435,2143286,115.7,2.5
227,2021,WASHINGTON MIDDLE (SPS-DISTRICT),SPS-District K-12,3646100540,2101 S JACKSON ST,SEATTLE,WA,98144,47.59796,-122.30415,CENTRAL,1,1963,3,1,136188,136188,0,74,46.40000153,47.29999924,6741748,6613559,71.59999847,72.5,K-12 School,K-12 School,142558,NA,,NA,,545977,0,48789,Compliant,No Issue,1862873,4878875,266.8,2
229,2021,MARTIN LUTHER KING JR (BRIGHTON) ELEMENTARY SCHOOL (SPS-DISTRICT),SPS-District K-12,3812400550,6725 45TH AVE S,SEATTLE,WA,98118,47.54174,-122.27691,SOUTHEAST,1,2004,2,1,67371,67371,0,64,41.5,42.09999847,2975440,2930712,74.69999695,75.40000153,K-12 School,K-12 School,70638,NA,,NA,,368618,0,17177,Compliant,No Issue,1257725,1717715,96.4,1.4
230,2021,U-HAUL RENTALS & MINI-STORAGE,NonResidential,3874900040,6343 35TH AVE SW,SEATTLE,WA,98126,47.54508,-122.37737,SOUTHWEST,1,1969,2,1,52088,52088,0,,25.79999924,26.29999924,1369064,1342384,40.59999847,41.09999847,Self-Storage Facility,Self-Storage Facility,52088,NA,,NA,,117982,0,9665,Compliant,No Issue,402553,966511,53,1
231,2021,HAMILTON MIDDLE (SPS-DISTRICT),SPS-District K-12,4083301505,1610 N 41ST ST,SEATTLE,WA,98103,47.65708,-122.33803,LAKE UNION,4,2010,3,1,127776,127776,0,30,48,47.79999924,6118009,6140222,107.9000015,107.6999969,K-12 School,K-12 School,128025,NA,,NA,,1236840,0,18979,Compliant,No Issue,4220099,1897911,118.3,0.9
232,2021,SILVER CLOUD INN LAKE UNION,NonResidential,4088802955,1150 FAIRVIEW AVE N,SEATTLE,WA,98109,47.62972,-122.32906,LAKE UNION,3,1998,5,1,123920,93920,30000,87,70.80000305,70.59999847,6629520,6651370,135.3999939,135.1000061,Hotel,Hotel,93920,Parking,30000,NA,,959469,0,33558,Compliant,No Issue,3273708,3355812,191.8,2
233,2021,ARMORY BUILDING (MOHAI),Nonresidential COS,4088803210,860 TERRY AVE N,SEATTLE,WA,98109,47.62759,-122.33661,LAKE UNION,1,1900,1,1,52690,52690,0,,143.3999939,144.8999939,7637246,7557440,252.5,254.1000061,Museum,Museum,52690,NA,,NA,,899052,0,45697,Compliant,No Issue,3067566,4569680,255.4,4.8
234,2021,SEATTLE CITY LIGHT ROY STREET WAREHOUSE,Nonresidential COS,4088803530,802 ROY ST,SEATTLE,WA,98109,47.62552,-122.34064,MAGNOLIA / QUEEN ANNE,1,1926,2,1,50292,50292,0,,,,,,,,Non-Refrigerated Warehouse,Non-Refrigerated Warehouse,38693,Residence Hall/Dormitory,5000,Office,4730,,,,Compliant,No Issue,133200,0,0,0
235,2021,COURTYARD BY MARRIOTT - SEATTLE,NonResidential,4088803586,925 WESTLAKE AVE N,SEATTLE,WA,98109,47.62782,-122.34045,MAGNOLIA / QUEEN ANNE,7,1998,7,1,207656,153315,54341,90,70.90000153,70.90000153,10040173,10040173,139.8000031,139.8000031,Hotel,Hotel,141591,Parking,66065,NA,,1549816,0,47522,Compliant,No Issue,5287972,4752200,274.3,1.8
237,2021,WHITTIER ELEMENTARY (SPS-DISTRICT),SPS-District K-12,4240400005,7501 13TH AVE NW,SEATTLE,WA,98117,47.68359,-122.37308,BALLARD,6,1999,2,1,67235,67235,0,45,52.09999847,52.90000153,3630634,3575750,93.30000305,94.09999847,K-12 School,K-12 School,68648,NA,,NA,,443600,0,21171,Compliant,No Issue,1513565,2117069,118.7,1.8
238,2021,CITY OF SEATTLE - NSC,Nonresidential COS,4310701070,9700 STONE AVE N,SEATTLE,WA,98103,47.70044,-122.34136,NORTHWEST,1,1957,2,1,91130,91130,0,29,90.30000305,90.80000305,8560882,8514911,213.6000061,215.1000061,Office,Office,57968,Distribution Center,32881,Parking,11850,1891510,0,21070,Compliant,No Issue,6453832,2107049,138.6,1.5
239,2021,GATEWOOD ELEMENTARY SCHOOL (SPS-DISTRICT),SPS-District K-12,4315700020,4320 SW MYRTLE ST,SEATTLE,WA,98136,47.54025,-122.3885,SOUTHWEST,1,1991,3,1,58118,58118,0,77,28.10000038,28.20000076,1646882,1640648,65.59999847,65.5,K-12 School,K-12 School,58473,NA,,NA,,351608,0,4472,Compliant,No Issue,1199685,447197,28.7,0.5
241,2021,HOTEL NEXUS - NORTHGATE,NonResidential,4468400005,2140 N NORTHGATE WAY,SEATTLE,WA,98133,47.70916,-122.33216,NORTHWEST,1,1968,4,1,64892,64892,0,78,76.09999847,76.09999847,4937291,4937291,140.3000031,140.3000031,Hotel,Hotel,64893,NA,,NA,,656936,0,26958,Compliant,No Issue,2241466,2695825,152.4,2.3
242,2021,OLYMPIC VIEW (SPS-DISTRICT),SPS-District K-12,5100404840,504 NE 95TH ST,SEATTLE,WA,98115,47.69823,-122.32126,NORTH,1,1989,2,1,52792,52792,0,83,22,22.39999962,1243302,1222077,61.70000076,62.70000076,K-12 School,K-12 School,55480,NA,,NA,,364391,0,0,Compliant,No Issue,1243301,0,5.1,0.1
243,2021,VAN ASSELT (OLD) SCHOOL (SPS-DISTRICT),SPS-District K-12,5129000050,7201 BEACON AVE S,SEATTLE,WA,98108,47.53809,-122.29591,GREATER DUWAMISH,1,1925,1,1,70762,70762,0,69,49.90000153,51.09999847,4156902,4057074,63.90000153,65.19999695,K-12 School,K-12 School,81337,NA,,NA,,156675,0,36223,Compliant,No Issue,534575,3622327,194.6,2.7
245,2021,CENTURYLINK FIELD-STADIUM,NonResidential,7666204876,800 OCCIDENTAL AVE S,SEATTLE,WA,98104,47.59544,-122.33159,GREATER DUWAMISH,1,1999,6,1,1913640,1585960,327680,,37.5,37.5,59420744,59520380,92.59999847,92.59999847,Other - Entertainment/Public Assembly,Other - Entertainment/Public Assembly,1585960,Parking,0,NA,,14139920,0,111754,Compliant,No Issue,48245407,11175350,793.1,0.5
"247,2021,CITY LIGHT - SOUTH SERVICE CENTER BLDG A,Nonresidential COS,7666205660,400 S SPOKANE ST,SEATTLE,WA,98134,47.57199,-122.32811,GREATER DUWAMISH,1,1924,2,1,179161,179161,0,,49.79999924,50.29999924,9092996,8996223,129.3000031,130.6000061,Other - Utility,Other - Utility,117861,Office,37321,""Repair Services (Vehicle, Shoe, Locksmith, etc)"",25543,2353536,0,10627,Compliant,No Issue,8030265,1062730,89.7,0.5"
"248,2021,CITY LIGHT - SOUTH SERVICE CENTER BLDG B,Nonresidential COS,7666205660,400 S SPOKANE ST,SEATTLE,WA,98134,47.57199,-122.32811,GREATER DUWAMISH,1,1965,2,1,58640,58640,0,,56.59999847,57.20000076,3351445,3321094,158.6000061,160,Other - Utility,Other - Utility,39140,""Repair Services (Vehicle, Shoe, Locksmith, etc)"",19500,NA,,982252,0,0,Compliant,No Issue,3351445,0,13.9,0.2"
249,2021,T-MOBILE PARK (SAFECO FIELD),NonResidential,7666206483,1250 1ST AVE S,SEATTLE,WA,98134,47.59085,-122.33354,GREATER DUWAMISH,1,1999,3,1,1172127,1172127,0,,,,,,,,Other - Entertainment/Public Assembly,Other - Entertainment/Public Assembly,1172127,NA,,NA,,0,0,0,Not Compliant,Missing 2021 EUI or Electricity Data,0,0,0,0
250,2021,SILVER CLOUD INN SEATTLE,NonResidential,7666206720,1046 1ST AVE S,SEATTLE,WA,98134,47.59269,-122.33372,GREATER DUWAMISH,1,2005,9,1,168449,153882,14567,98,40.20000076,40.20000076,6190446,6190446,93,93,Hotel,Hotel,153882,Parking,14567,NA,,1308102,0,17272,Compliant,No Issue,4463244,1727202,110.2,0.7
"253,2021,PORT OF SEATTLE- TERMINAL 30 (CAMPUS),Campus,7666207830,1901 E MARGINAL WAY S,SEATTLE,WA,98134,47.58405,-122.34223,GREATER DUWAMISH,1,2003,2,2,68640,68640,0,,138.6999969,138.3000031,12870905,12905366,342.7999878,342.3999939,Mixed Use Property,Transportation Terminal/Station,44160,""Repair Services (Vehicle, Shoe, Locksmith, etc)"",24480,Office,19610,3072925,0,23861,Compliant,No Issue,10484820,2386084,170.1,2.5"
257,2021,HARBOR ISLAND WAREHOUSE - KING COUNTY,NonResidential,7666703020,3235 16TH AVE SW,SEATTLE,WA,98134,47.57507,-122.35747,GREATER DUWAMISH,1,1916,4,1,79600,79600,0,69,15.30000019,15.19999981,2578204,2587552,42.79999924,42.70000076,Non-Refrigerated Warehouse,Non-Refrigerated Warehouse,169225,NA,,NA,,755628,0,0,Compliant,No Issue,2578203,0,10.7,0.1
260,2021,LINCOLN HIGH (SPS-DISTRICT),SPS-District K-12,7821200700,4400 INTERLAKE AVE N,SEATTLE,WA,98103,47.65996,-122.33962,LAKE UNION,1,1997,4,1,241066,241066,0,94,28.79999924,29.39999962,7661069,7506901,48.5,49.09999847,K-12 School,K-12 School,260459,NA,,NA,,796454,0,49436,Compliant,No Issue,2717502,4943566,273.8,1.1
261,2021,BOEING SOUTH PARK CAMPUS REPORT,Campus,7883608601,1420 S TRENTON ST,SEATTLE,WA,98108,47.52429,-122.31234,GREATER DUWAMISH,1,1980,2,16,334368,302494,31874,,126.6999969,126.9000015,46422340,46346240,323.2000122,323.3999939,Mixed Use Property,Office,154100,Laboratory,136588,Manufacturing/Industrial Plant,40338,11652970,0,66624,Compliant,No Issue,39759934,6662400,518.3,1.7
263,2021,THORNTON CINEMA BUILDING & PARKING GARAGE,NonResidential,8632880000,301 NE 103RD ST,SEATTLE,WA,98125,47.70281,-122.32532,NORTH,1,2008,6,1,423569,88460,335109,,74.59999847,74.59999847,6601776,6598100,161.6000061,161.6000061,Parking,Parking,335109,Movie Theater,67074,Medical Office,13567,1233374,0,23935,Compliant,No Issue,4208272,2393504,144.5,1.6
264,2021,TRIBECA CONDOS & STORE,NonResidential,8681450000,516 1ST AVE W,SEATTLE,WA,98119,47.6239,-122.35756,MAGNOLIA / QUEEN ANNE,1,2002,4,1,82061,42882,39179,,51,51.20000076,7619336,7588154,142.8000031,143.3000031,Supermarket/Grocery Store,Supermarket/Grocery Store,76268,Multifamily Housing,72564,NA,,2233100,0,0,Not Compliant,Account Requires Verification,7619337,0,31.5,0.7
265,2021,2024 THIRD AVE/YWCA,Multifamily MR (5-9),8729690000,2024 3RD AVE,SEATTLE,WA,98121,47.61316,-122.34153,DOWNTOWN,7,2003,7,1,116947,116947,0,,62.79999924,63.29999924,7953548,7892532,119.9000015,120.4000015,Multifamily MR (5-9),Multifamily Housing,81740,Office,27403,Other - Lodging/Residential,12851,1136583,0,40755,Compliant,No Issue,3878021,4075527,232.5,2
266,2021,WEST SEATTLE FOOD BANK,Multifamily LR (1-4),9271000000,6500 35TH AVE SW,SEATTLE,WA,98126,47.54448,-122.37603,DELRIDGE NEIGHBORHOODS,1,2007,4,1,52134,37940,14194,39,43.09999847,43.5,1902362,1884031,120.6999969,121.9000015,Multifamily LR (1-4),Multifamily Housing,34890,Parking,14194,Other - Public Services,8816,557550,0,0,Compliant,No Issue,1902362,0,7.9,0.2
267,2021,PINE ST. CONDO-ELLIOTT GRAND HYATT SEATTLE,NonResidential,6792120000,721 PINE ST,SEATTLE,WA,98101,47.61275,-122.3333,DOWNTOWN,1,1999,0,1,518497,518497,0,,83.09999847,82.80000305,45685716,45858640,191.3999939,190.8000031,Hotel,Hotel,495536,Parking,438756,Restaurant,49700,9598492,0,129357,Compliant,No Issue,32750055,12935660,822.5,1.6
268,2021,SWEDISH MEDICAL CENTER CHERRY HILL - CAMPUS,Campus,7942600331,500 17TH AVE,SEATTLE,WA,98122,47.60705,-122.30966,CENTRAL,3,1990,5,4,597519,597519,0,48,233.8000031,235.3999939,141621536,140639616,405.8999939,408.7999878,Hospital (General Medical & Surgical),Hospital (General Medical & Surgical),601615,Parking,48607,NA,,16280390,0,860729,Compliant,No Issue,55548691,86072856,4801.1,8
273,2021,HIGHLAND PARK SCHOOL (SPS-DISTRICT),SPS-District K-12,7972603210,1012 SW TRENTON ST,SEATTLE,WA,98106,47.52518,-122.34828,DELRIDGE NEIGHBORHOODS,1,1999,1,1,71714,71714,0,58,41.90000153,42.40000153,3058678,3023423,89,89.5,K-12 School,K-12 School,72178,NA,,NA,,544546,0,12007,Compliant,No Issue,1857990,1200689,71.5,1
274,2021,PUBLIC STORAGE (STORE 27020),NonResidential,8033700250,3616 STONE WAY N,SEATTLE,WA,98103,47.65097,-122.34227,LAKE UNION,1,1991,3,1,75397,67236,8161,,10,10,674227,672796,25.89999962,25.89999962,Self-Storage Facility,Self-Storage Facility,67236,Parking,8161,NA,,173308,0,829,Compliant,No Issue,591327,82900,6.8,0.1
276,2021,HARBORVIEW MEDICAL CENTER - Campus,Campus,8590900220,325 9TH AVE,SEATTLE,WA,98104,47.60399,-122.32377,EAST,3,2000,8,8,1926841,1926841,0,84,178.6999969,179.8999939,243915808,242223120,347,349.5,Hospital (General Medical & Surgical),Hospital (General Medical & Surgical),1355488,Parking,387651,NA,,33261670,124220176,62068,Compliant,No Issue,113488818,6206831,11110.4,5.8
278,2021,ID VILLAGE SQUARE 1,NonResidential,8592900105,802 S DEARBORN ST,SEATTLE,WA,98134,47.59626,-122.3218,DOWNTOWN,1,1999,5,1,102796,90185,12611,,85.30000305,85.30000305,8770639,8764259,204.8999939,205,NA,Senior Living Community,55259,Medical Office,40091,K-12 School,3231,1986257,0,19935,Not Compliant,Default Data,6777109,1993531,133.9,1.5
279,2021,WEST SEATTLE HIGH SCHOOL (SPS-DISTRICT),SPS-District K-12,8702100050,3000 CALIFORNIA AVE SW,SEATTLE,WA,98116,47.57678,-122.38459,SOUTHWEST,1,2002,2,1,208981,208981,0,59,59,59,12327369,12324651,101.6999969,101.6999969,K-12 School,K-12 School,208981,NA,,NA,,1392324,0,75768,Compliant,No Issue,4750609,7576760,422.1,2
280,2021,THE WINTONIA,Multifamily MR (5-9),8725600350,1431 MINOR AVE,SEATTLE,WA,98101,47.6136,-122.32785,EAST,7,1909,6,1,51976,51976,0,42,84.09999847,85.30000305,4294116,4233396,146.1000061,147.3999939,Multifamily MR (5-9),Multifamily Housing,50350,NA,,NA,,487498,0,26308,Compliant,No Issue,1663343,2630774,146.6,2.8
281,2021,UNIVERSITY HTS CENTER,NonResidential,8816400900,5031 UNIVERSITY WAY NE,SEATTLE,WA,98105,47.66568,-122.31368,NORTHEAST,1,1928,2,1,55653,55653,0,,31.20000076,31.89999962,1772465,1732772,47.09999847,47.90000153,Social/Meeting Hall,Social/Meeting Hall,55500,NA,,NA,,133162,0,13181,Compliant,No Issue,454347,1318118,71.9,1.3
282,2021,HOTEL DECA,NonResidential,8817400055,4507 BROOKLYN AVE NE,SEATTLE,WA,98105,47.66151,-122.31457,NORTHEAST,1,1931,16,1,106860,106860,0,99,50.09999847,50.09999847,5358639,5358639,98.80000305,98.80000305,Hotel,Hotel,106860,NA,,NA,,825923,0,25406,Compliant,No Issue,2818049,2540590,146.6,1.4
283,2021,LAKE CITY CENTER,NonResidential,8822900465,12360 LAKE CITY WAY NE,SEATTLE,WA,98125,47.71895,-122.29475,NORTH,1,1972,5,1,50759,50759,0,23,74.09999847,74.90000153,3801152,3761456,162.1999969,163,Office,Office,47079,Restaurant,3680,NA,,717282,0,13538,Not Compliant,Missing 2021 EUI or Electricity Data,2447367,1353785,82,1.6
284,2021,UNIVERSITY CONGREGATIONAL CHURCH,NonResidential,8823902255,4505 16TH AVE NE,SEATTLE,WA,98105,47.66182,-122.31113,NORTHEAST,1,1952,2,1,56772,56772,0,,,,,,,,Worship Facility,Worship Facility,56772,NA,,NA,,,,,Not Compliant,Missing 2021 EUI or Electricity Data,1019502,0,0,0
285,2021,UNIVERSITY PRESBY CHURCH,NonResidential,8823902325,4550 15TH AVE NE,SEATTLE,WA,98105,47.6626,-122.31164,NORTHEAST,1,1952,3,1,87250,87250,0,53,51.20000076,52.40000153,4573700,4469583,84.40000153,85.59999847,Worship Facility,Worship Facility,87250,Parking,17761,NA,,446665,0,30497,Compliant,No Issue,1524022,3049677,168.3,1.9
286,2021,ROOSEVELT HIGH (SPS-DISTRICT),SPS-District K-12,8826900005,1410 NE 66TH ST,SEATTLE,WA,98115,47.67723,-122.31281,NORTHEAST,1,2006,3,1,269297,269297,0,71,46.40000153,47,12903111,12746442,91.59999847,92.19999695,K-12 School,K-12 School,274673,NA,,NA,,1972733,0,61721,Compliant,No Issue,6730965,6172146,355.6,1.3
287,2021,BRYANT ELEMENTARY (SPS-DISTRICT),SPS-District K-12,8827900180,3311 NE 60TH ST,SEATTLE,WA,98115,47.67184,-122.29221,NORTHEAST,1,2001,3,1,75174,75174,0,55,44.5,45.20000076,3585568,3532181,81.30000305,82,K-12 School,K-12 School,79345,NA,,NA,,458768,0,20203,Compliant,No Issue,1565315,2020252,113.8,1.5
289,2021,FRANTZ H COE ELEMENTARY SCHOOL (SPS-DISTRICT),SPS-District K-12,9270200005,2424 7TH AVE W,SEATTLE,WA,98119,47.64052,-122.3656,MAGNOLIA / QUEEN ANNE,7,2003,3,1,75214,75214,0,36,47.79999924,48,3749637,3734840,97.69999695,97.90000153,K-12 School,K-12 School,78151,NA,,NA,,622539,0,16255,Compliant,No Issue,2124103,1625534,95.1,1.3
290,2021,MADISON MIDDLE (SPS-DISTRICT),SPS-District K-12,9278300005,3429 45TH AVE SW,SEATTLE,WA,98116,47.57298,-122.39028,SOUTHWEST,1,2005,3,1,134918,134918,0,74,30.10000038,30.20000076,4686428,4668722,75,75.09999847,K-12 School,K-12 School,154951,NA,,NA,,1124023,0,8513,Compliant,No Issue,3835166,851263,61.1,0.5
291,2021,THURGOOD MARSHALL (SPS-DISTRICT),SPS-District K-12,9344400300,2401 S IRVING ST,SEATTLE,WA,98144,47.59096,-122.29985,CENTRAL,1,1991,2,1,64414,64414,0,31,43.20000076,44,2792988,2745072,121.0999985,123.1999969,K-12 School,K-12 School,63481,NA,,NA,,818578,0,0,Compliant,No Issue,2792988,0,11.6,0.2
"292,2021,""MARSHALL, JOHN (SPS-DISTRICT)"",SPS-District K-12,9528103775,520 NE RAVENNA BLVD,SEATTLE,WA,98115,47.67725,-122.32232,NORTHWEST,1,1927,3,1,92437,92437,0,25,83.69999695,83.80000305,7365562,7355871,104.5999985,104.6999969,K-12 School,K-12 School,87927,NA,,NA,,247020,0,65227,Compliant,No Issue,842832,6522729,349.9,3.8"
293,2021,ACT THEATER,NonResidential,2141290000,700 UNION ST,SEATTLE,WA,98101,47.61103,-122.33238,DOWNTOWN,1,1914,7,1,166570,166570,0,,59.5,61.90000153,7970269,7657836,89.40000153,91.90000153,Other - Entertainment/Public Assembly,Other - Entertainment/Public Assembly,109754,Other,12876,Office,6136,580661,0,59891,Compliant,No Issue,1981216,5989053,326.3,2
294,2021,YWCA Women's Residence,NonResidential,2301950000,1118 5TH AVE,SEATTLE,WA,98101,47.6079,-122.33266,DOWNTOWN,7,1913,9,1,107572,107572,0,84,39.70000076,39.59999847,4020211,4037074,79.69999695,79.5,Residence Hall/Dormitory,Residence Hall/Dormitory,63934,Office,27143,Retail Store,10568,595237,1989262,0,Compliant,No Issue,2030949,0,173.5,1.6
295,2021,CENTURYLINK: 3RD AVE 3-D,NonResidential,2302700000,1122 3RD AVE,SEATTLE,WA,98101,47.60699,-122.33481,DOWNTOWN,1,1955,15,1,208328,208328,0,,267.6000061,267.6000061,54317328,54317328,749.2000122,749.2000122,Other,Other,203000,NA,,NA,,15919500,0,0,Compliant,No Issue,54317334,0,224.7,1.1
296,2021,COOPER SCHOOL ARTIST'S LOFTS,Multifamily LR (1-4),3388120000,4408 DELRIDGE WAY SW,SEATTLE,WA,98106,47.56379,-122.36301,DELRIDGE NEIGHBORHOODS,1,1917,4,1,56617,56617,0,44,31.20000076,31.70000076,1794802,1768886,67.09999847,68.19999695,Multifamily LR (1-4),Multifamily Housing,56617,NA,,NA,,330810,0,6661,Compliant,No Issue,1128722,666080,40,0.7
297,2021,LAKE CITY COURT,Multifamily MR (5-9),3993000000,12730 33RD AVE NE,SEATTLE,WA,98125,47.72217,-122.29182,NORTH,1,2009,6,1,56745,56745,0,53,61.29999924,61.79999924,2697731,2678802,131.8999939,133.1000061,Multifamily MR (5-9),Multifamily Housing,43673,NA,,NA,,498848,0,9957,Compliant,No Issue,1702070,995661,59.9,1.1
299,2021,OTHELLO BUILDING,Multifamily LR (1-4),6434000000,3815 S OTHELLO ST,SEATTLE,WA,98118,47.53685,-122.28406,GREATER DUWAMISH,2,2003,4,1,67920,67920,0,,53.70000076,54,2375723,2361600,145.8000031,146.6000061,Multifamily LR (1-4),Multifamily Housing,24600,Medical Office,12917,Office,4150,661919,0,1173,Compliant,No Issue,2258468,117255,15.6,0.2
300,2021,CLEVELAND HIGH SCHOOL (SPS-DISTRICT),SPS-District K-12,7549802085,5511 15TH AVE S,SEATTLE,WA,98108,47.55237,-122.31391,GREATER DUWAMISH,1,2007,3,1,204961,204961,0,92,27.5,27.39999962,6015762,6034066,60,59.90000153,K-12 School,K-12 School,219368,NA,,NA,,1143184,0,21152,Compliant,No Issue,3900544,2115219,128.5,0.6
302,2021,WA ARMY NATIONAL GUARD,NonResidential,7666201147,1600 W ARMORY WAY,SEATTLE,WA,98119,47.63965,-122.3783,MAGNOLIA / QUEEN ANNE,1,1973,1,1,76086,76086,0,37,47.79999924,48.40000153,3764551,3719438,84.5,85.09999847,Non-Refrigerated Warehouse,Non-Refrigerated Warehouse,55000,Office,22810,NA,,446767,0,22402,Compliant,No Issue,1524368,2240184,125.3,1.6
313,2021,ELLIOTT PARK BUILDING,NonResidential,7666202190,201 ELLIOTT AVE W,SEATTLE,WA,98119,47.61972,-122.36033,MAGNOLIA / QUEEN ANNE,1,1927,5,1,190000,151000,39000,,188.8999939,188.1999969,29125312,29235892,400.6000061,399.7999878,Mixed Use Property,Laboratory,75627,Office,75627,Parking,47633,5240437,0,112449,Compliant,No Issue,17880371,11244943,671.2,4.4
314,2021,EDGEWATER INN,NonResidential,7666202317,2411 ALASKAN WAY,SEATTLE,WA,98121,47.61235,-122.3518,DOWNTOWN,1,1961,4,1,122309,122309,0,41,150.3000031,149.5,18285032,18385590,230.3000031,229.5,Hotel,Hotel,122309,NA,,NA,,1485280,0,132173,Compliant,No Issue,5067775,13217255,722.9,5.9
315,2021,PORT OF SEATTLE  BELL HARBOR COMPLEX  & CONFERENCE - CAMPUS,Campus,7666202325,2201 ALASKAN WAY,SEATTLE,WA,98121,47.61137,-122.34947,DOWNTOWN,1,1995,3,3,217088,217088,0,,148.8999939,148.3000031,32191814,32331892,330.3999939,329.7999878,Mixed Use Property,Convention Center,96648,Transportation Terminal/Station,96647,Restaurant,22181,6328280,0,105997,Compliant,No Issue,21592091,10599723,652.3,3
316,2021,SEATTLE WATERFRONT MARRIOTT,NonResidential,7666202345,2100 ALASKAN WAY,SEATTLE,WA,98121,47.61069,-122.34653,DOWNTOWN,1,2003,8,1,254273,215473,38800,67,79,78.80000305,20034490,20077746,155.3000031,155.1000061,Hotel,Hotel,254273,Parking,38757,NA,,3082843,0,95158,Compliant,No Issue,10518660,9515829,548.9,2.5
317,2021,SEATTLE AQUARIUM,Nonresidential COS,7666202420,1421 ALASKAN WAY,SEATTLE,WA,98101,47.60729,-122.34211,DOWNTOWN,1,1980,2,1,53365,53365,0,,291.7999878,290.3999939,20150314,20248478,589.0999756,587.2999878,Other - Entertainment/Public Assembly,Other - Entertainment/Public Assembly,69400,NA,,NA,,3282498,0,89504,Compliant,No Issue,11199883,8950430,521.7,9.8
318,2021,PIER 54,NonResidential,7666202495,1003 ALASKAN WAY,SEATTLE,WA,98104,47.6041,-122.33958,DOWNTOWN,1,1900,1,1,62900,62900,0,,109.8000031,109.8000031,7218373,7218373,200.3999939,200.3999939,Mixed Use Property,Restaurant,32494,Other,29793,Retail Store,3462,937005,0,40213,Compliant,No Issue,3197062,4021311,226.8,3.6
319,2021,DAILY JOURNAL BUILDING,NonResidential,7666202580,83 COLUMBIA ST,SEATTLE,WA,98104,47.60271,-122.33557,DOWNTOWN,1,1914,4,1,46620,46620,0,90,35.79999924,36.29999924,1453163,1431760,65.30000305,65.90000153,Office,Office,33000,Retail Store,7000,NA,,163251,896151,0,Compliant,No Issue,557012,0,76.7,1.6
320,2021,BMW SEATTLE - SERVICE CENTER,NonResidential,7666202725,900 MAYNARD AVE S,SEATTLE,WA,98134,47.59486,-122.32455,GREATER DUWAMISH,2,2008,4,1,203504,44132,159372,77,15.30000019,15.39999962,3131598,3104034,37.40000153,37.5,Non-Refrigerated Warehouse,Non-Refrigerated Warehouse,159372,Other - Services,44132,NA,,727628,0,6489,Compliant,No Issue,2482665,648933,44.7,1
322,2021,KIRO-TV,NonResidential,656000005,2807 3RD AVE,SEATTLE,WA,98121,47.61757,-122.35122,DOWNTOWN,1,1968,3,1,100734,74003,26731,21,127.8000031,127.8000031,9455053,9455053,357.7000122,357.7000122,Office,Office,74003,Parking,26731,NA,,2771118,0,0,Compliant,No Issue,9455055,0,39.1,0.5
323,2021,GRANGE OFFICE PLAZA,NonResidential,656000045,200 CEDAR ST,SEATTLE,WA,98121,47.61703,-122.35012,DOWNTOWN,1,1981,4,1,77662,59158,18504,68,68.69999695,69.30000305,4303366,4265584,161.3000031,161.8999939,Office,Office,62108,Parking,17570,NA,,927568,0,11385,Compliant,No Issue,3164863,1138503,73.6,1.2
324,2021,FOURTH & BATTERY BUILDING,NonResidential,656000480,2401 4TH AVE,SEATTLE,WA,98121,47.61619,-122.34599,DOWNTOWN,1,1978,12,1,234000,212210,21790,51,67.80000305,69.09999847,14601343,14315158,180.6000061,184,Office,Office,177522,Laboratory,29952,Parking,18928,3940597,0,11560,Compliant,No Issue,13445317,1156025,117,0.6
325,2021,WESTLAKE MALL RETAIL PORTION,NonResidential,9301500000,400 PINE ST,SEATTLE,WA,98101,47.61192,-122.33717,DOWNTOWN,1,1989,4,1,111077,111077,0,,91.30000305,91.30000305,15184363,15184363,248.3000031,248.3000031,Enclosed Mall,Enclosed Mall,166313,NA,,NA,,4244802,0,7011,Compliant,No Issue,14483264,701097,97.2,0.9
326,2021,WESTLAKE TOWER,NonResidential,9301500000,1601 5TH AVE,SEATTLE,WA,98101,47.61192,-122.33717,DOWNTOWN,1,1989,25,1,516342,389150,127192,93,37.79999924,37.79999924,14722895,14722895,105.8000031,105.8000031,Office,Office,389582,Parking,112258,NA,,4315034,0,0,Compliant,No Issue,14722896,0,60.9,0.2
327,2021,NORDSTROM DOWNTOWN,NonResidential,659000070,500 PINE ST,SEATTLE,WA,98101,47.61229,-122.33629,DOWNTOWN,1,1925,10,1,693450,693450,0,89,50.20000076,50.20000076,34799348,34799348,136.1000061,136.1000061,Retail Store,Retail Store,361107,Office,332343,NA,,9691015,2388,17312,Compliant,No Issue,33065743,1731216,228.9,0.3
328,2021,CENTURYLINK: SEATTLE BELL PLAZA,NonResidential,659000165,1600 7TH AVE,SEATTLE,WA,98101,47.61316,-122.3343,DOWNTOWN,7,1976,33,1,791396,791396,0,78,47.40000153,47.40000153,34250480,34250480,100.0999985,100.0999985,Office,Office,722527,Parking,82776,Lifestyle Center,18969,6094637,0,134556,Compliant,No Issue,20794901,13455580,800.7,1
329,2021,1700 SEVENTH BUILDING,NonResidential,659000235,1700 7TH AVE,SEATTLE,WA,98101,47.61399,-122.33523,DOWNTOWN,7,2000,23,1,747747,542671,205076,87,39.5,39.70000076,21928418,21771114,109.4000015,110.1999969,Office,Office,542461,Parking,219045,Restaurant,9337,6331051,0,3269,Compliant,No Issue,21601546,326870,106.7,0.2
330,2021,LLOYD BUILDING,NonResidential,659000350,603 STEWART ST,SEATTLE,WA,98101,47.61356,-122.33665,DOWNTOWN,1,1926,10,1,63409,55652,7757,77,59.70000076,59,3742033,3784623,95.19999695,94.40000153,Office,Office,63409,NA,,NA,,272164,2813411,0,Not Compliant,Missing 2021 EUI or Electricity Data,928622,0,237.4,4.3
331,2021,TOWER BLDG,NonResidential,659000365,1809 7TH AVE,SEATTLE,WA,98101,47.61375,-122.33566,DOWNTOWN,1,1930,17,1,204790,174790,30000,96,32.90000153,33.20000076,5774209,5708478,76.19999695,76.59999847,Office,Office,142034,Other - Recreation,17070,Retail Store,14666,1212856,0,16359,Compliant,No Issue,4138265,1635945,104,0.6
332,2021,TIMES SQUARE BUILDING (THE VANCE CORPORATION),NonResidential,659000385,414 OLIVE WAY,SEATTLE,WA,98101,47.61256,-122.33808,DOWNTOWN,1,1916,5,1,73399,73399,0,82,36.90000153,37.29999924,2736240,2707768,103.3000031,104.4000015,Office,Office,54615,Retail Store,18784,NA,,801946,0,0,Compliant,No Issue,2736240,0,11.3,0.2
333,2021,PLAZA 600 BUILDING,NonResidential,659000555,600 STEWART ST,SEATTLE,WA,98101,47.61402,-122.33712,DOWNTOWN,1,1969,20,1,265851,233517,32334,75,72.09999847,71.40000153,16234319,16390818,131.8000031,131,Office,Office,227310,Parking,32414,NA,,1881420,9814915,0,Compliant,No Issue,6419405,0,841.3,3.6
334,2021,WEST 8TH,NonResidential,659000750,2001 8TH AVE,SEATTLE,WA,98121,47.61578,-122.33726,DOWNTOWN,1,2009,25,1,758043,529375,228668,92,33.90000153,34.29999924,18170956,17959074,94.90000153,96,Office,Office,530127,Parking,220364,NA,,5325603,0,0,Compliant,No Issue,18170957,0,75.2,0.1
335,2021,DENNY BUILDING,NonResidential,660000080,2200 6TH AVE,SEATTLE,WA,98121,47.61641,-122.34112,DOWNTOWN,1,1968,12,1,190642,190642,0,86,52.90000153,54.09999847,10307431,10081960,106.5,108.8000031,Office,Office,190437,Parking,48500,NA,,1527172,5096720,0,Compliant,No Issue,5210711,0,444.6,2.3
336,2021,1918 EIGHTH AVE,NonResidential,660000650,1918 8TH AVE,SEATTLE,WA,98101,47.61555,-122.33582,DOWNTOWN,1,2009,36,1,824887,669915,154972,81,44.29999924,44.29999924,32910994,32910994,123.5999985,123.5999985,Office,Office,743562,Parking,161119,NA,,9603027,0,1455,Compliant,No Issue,32765528,145466,143.3,0.2
337,2021,1800 9TH AVENUE BUILDING,NonResidential,660001135,1800 9TH AVE,SEATTLE,WA,98101,47.61516,-122.33303,DOWNTOWN,1,1990,16,1,480840,339240,141600,90,40,39.90000153,13540485,13574414,111.5999985,111.3000031,Office,Office,311736,Parking,123356,Fitness Center/Health Club/Gym,18239,3942355,0,892,Compliant,No Issue,13451315,89171,60.4,0.2
338,2021,SEATTLE CHILDREN'S HOSPITAL  (JACK R MCDONALD BUILDING),NonResidential,660001215,1900 9TH AVE,SEATTLE,WA,98101,47.61598,-122.33448,DOWNTOWN,1,2004,11,1,299070,230638,68432,,233.1000061,232.5,58116100,58271304,436,435.3999939,Other,Other,250000,Parking,49070,NA,,8009091,0,307891,Compliant,No Issue,27327018,30789081,1748.3,7.6
339,2021,BRODERICK BUILDING,NonResidential,939000130,615 2ND AVE,SEATTLE,WA,98104,47.60266,-122.33332,DOWNTOWN,1,1900,7,1,89550,89550,0,89,37.09999847,37.29999924,3392168,3372345,95.5,96.30000305,Office,Office,79295,Retail Store,11630,NA,,857307,467035,0,Compliant,No Issue,2925133,0,50.9,0.6
340,2021,PIONEER BUILDING,NonResidential,939000150,600 1ST AVE,SEATTLE,WA,98104,47.60219,-122.33347,DOWNTOWN,1,1900,6,1,89355,89355,0,,,,,,,,NA,NA,,NA,,NA,,0,0,0,Not Compliant,Portfolio Manager Account Not Shared,0,0,0,0
341,2021,DEXTER HORTON BUILDING,NonResidential,939000260,710 2ND AVE,SEATTLE,WA,98104,47.6036,-122.33288,DOWNTOWN,1,1922,15,1,388934,388934,0,85,28.5,28.79999924,11207250,11088841,68.59999847,69,Office,Office,388934,NA,,NA,,2450848,2844954,0,Compliant,No Issue,8362293,0,270.7,0.7
342,2021,EXCHANGE BUILDING,NonResidential,939000335,821 2ND AVE,SEATTLE,WA,98104,47.60403,-122.33497,DOWNTOWN,1,1929,22,1,384302,384302,0,83,30.70000076,30.5,11219339,11282749,85.90000153,85.40000153,Office,Office,367709,NA,,NA,,3288200,0,0,Compliant,No Issue,11219338,0,46.4,0.1
343,2021,NORTON BUILDING,NonResidential,939000355,801 2ND AVE,SEATTLE,WA,98104,47.6037,-122.33447,DOWNTOWN,1,1958,17,1,378525,293925,84600,79,76.90000153,77.69999695,19199364,19009206,156.6000061,157.6000061,Office,Office,247161,Parking,83311,NA,,3145454,0,84671,Compliant,No Issue,10732289,8467074,494.1,1.7
345,2021,999 THIRD AVE,NonResidential,939000435,999 3RD AVE,SEATTLE,WA,98104,47.60505,-122.33427,DOWNTOWN,1,1983,47,1,1323055,1323055,0,86,30.39999962,30.89999962,33609104,33091578,85.09999847,86.40000153,Office,Office,1088855,Parking,272682,NA,,9850265,0,0,Compliant,No Issue,33609104,0,139,0.1
346,2021,1000 2ND AVENUE BUILDING,NonResidential,939000475,1000 2ND AVE,SEATTLE,WA,98104,47.60567,-122.33511,DOWNTOWN,7,1986,41,1,589921,460489,129432,88,34.70000076,34.70000076,17007542,17007542,97.19999695,97.19999695,Office,Office,479650,Parking,139555,Pre-school/Daycare,10475,4984625,0,0,Compliant,No Issue,17007540,0,70.4,0.2
348,2021,1101 SECOND AVE OFFICE BUILDING,NonResidential,942000025,1101 2ND AVE,SEATTLE,WA,98101,47.60581,-122.33664,DOWNTOWN,1,1968,8,1,147672,87315,60357,81,46.40000153,46.40000153,4052248,4052248,129.8999939,129.8999939,Office,Office,87315,Parking,60357,NA,,1187646,0,0,Compliant,No Issue,4052248,0,16.8,0.2
349,2021,2ND & SENECA BLDS,NonResidential,942000030,1191 2ND AVE,SEATTLE,WA,98101,47.60614,-122.33674,DOWNTOWN,1,1991,29,1,635303,438072,197231,93,30.5,30.5,15956691,15949999,84.80000305,84.90000153,Office,Office,522667,Parking,194435,NA,,4616059,206698,0,Compliant,No Issue,15749993,0,82.3,0.2
350,2021,SECOND AND SPRING BUILDING,NonResidential,942000045,1100 2ND AVE,SEATTLE,WA,98101,47.60642,-122.33581,DOWNTOWN,1,1958,6,1,172842,146922,25920,,193,193.3000031,26917312,26869410,514.2000122,514.5,Office,Office,99890,Data Center,39336,Parking,25920,7264196,0,21319,Compliant,No Issue,24785437,2131875,215.8,1.5
351,2021,1111 3RD AVE BUILDING,NonResidential,942000050,1111 3RD AVE,SEATTLE,WA,98101,47.60655,-122.33533,DOWNTOWN,1,1980,34,1,776762,614158,162604,81,40,40.29999924,24407816,24249686,111.4000015,112.0999985,Office,Office,606050,Parking,154947,NA,,7082893,0,2410,Compliant,No Issue,24166831,240987,112.8,0.2
352,2021,ABRAHAM LINCOLN BUILDING,NonResidential,942000140,1110 3RD AVE,SEATTLE,WA,98101,47.60671,-122.33456,DOWNTOWN,1,1972,14,1,186768,162993,23775,77,57,57,10418754,10426278,136.5,136.3999939,Office,Office,182540,Parking,33671,Data Center,240,2275200,2655770,0,Compliant,No Issue,7762982,0,252.6,1.5
353,2021,SAFECO PLAZA / 1001 FOURTH AVENUE,NonResidential,942000300,1001 4TH AVE,SEATTLE,WA,98104,47.60615,-122.33388,DOWNTOWN,1,1969,49,1,1123435,754455,368980,80,42.90000153,43.29999924,39338768,38981012,110.6999969,111.6999969,Office,Office,907746,Parking,234689,Food Sales,0,10070360,0,49787,Compliant,No Issue,34360068,4978689,406.6,0.5
354,2021,FOURTH & MADISON ( IDX TOWER),NonResidential,942000345,925 4TH AVE,SEATTLE,WA,98104,47.60549,-122.33319,DOWNTOWN,7,2002,37,1,1052469,888049,164420,90,35,35.20000076,31351304,31129340,97.90000153,98.59999847,Office,Office,779235,Parking,185581,Financial Office,95572,9188542,0,0,Compliant,No Issue,31351305,0,129.7,0.1
355,2021,901 FIFTH AVENUE,NonResidential,942000365,901 5TH AVE,SEATTLE,WA,98104,47.60616,-122.33165,DOWNTOWN,1,1973,42,1,711611,540589,171022,86,57.29999924,58.5,35065112,34366412,157.3000031,160.5,Office,Office,581558,Parking,189600,Retail Store,18026,9921056,1214472,0,Compliant,No Issue,33850643,0,240.9,0.4
356,2021,CENTRAL BUILDING,NonResidential,942000550,810 3RD AVE,SEATTLE,WA,98104,47.60471,-122.33261,DOWNTOWN,1,1907,8,1,201480,201480,0,93,26.89999962,27.39999962,5513656,5427614,75.40000153,76.59999847,Office,Office,201480,NA,,NA,,1615960,0,0,Compliant,No Issue,5513656,0,22.8,0.1
357,2021,SEATTLE MUNICIPAL TOWER,Nonresidential COS,942000720,700 5TH AVE,SEATTLE,WA,98104,47.60501,-122.32988,DOWNTOWN,1,1990,63,1,1354987,1195387,159600,78,35.5,35.90000153,43929372,43373072,99.19999695,100.5,Office,Office,1222878,Parking,275949,NA,,12860150,0,505,Compliant,No Issue,43878832,50533,184.2,0.2
358,2021,SEATTLE JUSTICE CENTER,Nonresidential COS,942000750,610 5TH AVE,SEATTLE,WA,98104,47.60421,-122.32919,DOWNTOWN,1,2001,14,1,310490,310490,0,56,60.70000076,60.59999847,18063400,18105404,140.5,140.5,Courthouse,Courthouse,298278,NA,,NA,,3842217,0,49538,Compliant,No Issue,13109644,4953755,317.3,1
359,2021,CITY HALL,Nonresidential COS,942000810,600 4TH AVE,SEATTLE,WA,98104,47.60377,-122.32971,DOWNTOWN,1,2003,8,1,199530,168870,30660,43,80.69999695,82.80000305,15234762,14849855,155.6999969,159.6999969,Office,Office,184042,Parking,17774,NA,,2243654,0,75794,Compliant,No Issue,7655347,7579413,434.2,2.6
360,2021,CHINOOK BLDG - KING COUNTY,NonResidential,942001105,401 5TH AVE,SEATTLE,WA,98104,47.60249,-122.32854,DOWNTOWN,7,2006,13,1,372242,319539,52703,98,51.70000076,51.40000153,14602212,14694153,105.4000015,105,Office,Office,276506,Parking,55153,Pre-school/Daycare,5638,2431590,0,63056,Compliant,No Issue,8296585,6305628,369.2,1.2
361,2021,YESLER BUILDING - KING COUNTY,NonResidential,942001150,400 YESLER WAY,SEATTLE,WA,98104,47.60193,-122.32812,DOWNTOWN,1,1909,7,1,114395,106099,8296,92,35.5,35.40000153,3423076,3426353,78.09999847,78,Office,Office,96582,NA,,NA,,660456,0,11696,Compliant,No Issue,2253477,1169600,71.4,0.7
363,2021,UNIVERSITY BOOK STORE,NonResidential,1142000075,4326 UNIVERSITY WAY NE,SEATTLE,WA,98105,47.66024,-122.31278,NORTHEAST,4,1978,2,1,89200,89200,0,39,61.09999847,61.40000153,5476280,5449002,153.3000031,153.6000061,Retail Store,Retail Store,89200,NA,,NA,,1332148,0,9310,Compliant,No Issue,4545289,930991,68.2,0.8
364,2021,UW TOWER BLDG COMPLEX,NonResidential,1142000280,4333 BROOKLYN AVE NE,SEATTLE,WA,98105,47.66072,-122.31466,NORTHEAST,1,1971,23,4,474546,474546,0,67,60.40000153,61.20000076,29035830,28644040,169,171.3000031,Office,Office,474546,NA,,NA,,8509915,0,0,Compliant,No Issue,29035830,0,120.1,0.3
365,2021,UW TOWER DATA CENTER,NonResidential,1142000290,4310 12TH AVE NE,SEATTLE,WA,98105,47.6606,-122.31512,NORTHEAST,1,1969,5,1,36000,36000,0,98,908.9000244,909.9000244,32754784,32721954,2545,2547.600098,Data Center,Data Center,36000,NA,,NA,,9599878,0,0,Compliant,No Issue,32754784,0,135.5,3.8
366,2021,UNIVERSITY DISTRICT BUILDING,NonResidential,1142000500,1107 NE 45TH ST,SEATTLE,WA,98105,47.661,-122.31626,NORTHEAST,1,1961,5,1,99005,81071,17934,92,24.39999962,24.39999962,1980500,1980500,66.80000305,66.80000305,Office,Office,81071,Parking,17934,NA,,559171,0,726,Compliant,No Issue,1907892,72608,11.7,0.1
367,2021,4311 ROOSEVELT,NonResidential,1142000530,4311 11TH AVE NE,SEATTLE,WA,98105,47.66065,-122.31689,NORTHEAST,1,2002,6,1,135051,90803,44248,86,30,30,2879500,2879500,84,84,Office,Office,95943,Parking,42500,NA,,843933,0,0,Compliant,No Issue,2879500,0,11.9,0.1
368,2021,4300 ROOSEVELT,NonResidential,1142000550,4300 ROOSEVELT WAY NE,SEATTLE,WA,98105,47.65999,-122.31741,NORTHEAST,1,2002,5,1,220649,137929,82720,92,32.70000076,32.70000076,4765686,4765686,91.59999847,91.59999847,Office,Office,145754,Parking,90000,NA,,1396743,0,0,Compliant,No Issue,4765687,0,19.7,0.1
369,2021,SEATTLE VAULT SELF STORAGE,NonResidential,660001580,1800 TERRY AVE,SEATTLE,WA,98101,47.61591,-122.33238,DOWNTOWN,1,1964,5,1,93660,93660,0,,7.300000191,7.199999809,678489,680976,20.39999962,20.29999924,Self-Storage Facility,Self-Storage Facility,93660,Parking,0,NA,,198854,0,0,Compliant,No Issue,678489,0,2.8,0
370,2021,METROPOLITAN PARK I  (WEST) OFFICE BLDG,NonResidential,660002054,1100 OLIVE WAY,SEATTLE,WA,98101,47.61597,-122.33086,DOWNTOWN,1,1980,18,1,413715,349055,64660,82,46.40000153,46.40000153,17323484,17323484,129,129,Office,Office,373060,Parking,68921,NA,,5011164,0,2254,Compliant,No Issue,17098092,225393,82.7,0.2
371,2021,METROPOLITAN PARK NORTH BUILDING,NonResidential,660002381,1220 HOWELL ST,SEATTLE,WA,98101,47.6177,-122.3306,DOWNTOWN,1,2000,11,1,380312,184691,195621,81,45,46,9411945,9200914,125.8000031,128.6999969,Mixed Use Property,Parking,182820,Office,165558,Fitness Center/Health Club/Gym,39024,2754963,0,120,Compliant,No Issue,9399934,12010,39.5,0.2
372,2021,METROPOLITAN PARK EAST,NonResidential,660002410,1730 MINOR AVE,SEATTLE,WA,98101,47.61695,-122.32965,DOWNTOWN,1,1988,20,1,497513,378769,118744,86,40.59999847,41,16986752,16790246,112.5999985,113.9000015,Office,Office,408476,Parking,116345,Restaurant,3240,4910942,0,2306,Compliant,No Issue,16756134,230619,81.6,0.2
373,2021,FOURTH & BLANCHARD BUILDING,NonResidential,694000205,2101 4TH AVE,SEATTLE,WA,98121,47.61431,-122.34244,DOWNTOWN,7,1979,24,1,543876,427155,116721,82,40.40000153,41.29999924,17937618,17552172,113.1999969,115.6999969,Office,Office,434018,Parking,93102,NA,,5257215,0,0,Compliant,No Issue,17937618,0,74.2,0.2
374,2021,3005 1ST AVE BUILDING,NonResidential,695000135,3005 1ST AVE,SEATTLE,WA,98121,47.6177,-122.3545,DOWNTOWN,1,1980,4,1,109347,69810,39537,,107.5999985,107.5999985,8549652,8549652,296.6000061,296.6000061,Mixed Use Property,Office,54035,Parking,39785,Laboratory,25428,2443463,0,2126,Compliant,No Issue,8337096,212556,45.8,0.7
375,2021,THIRD AND BROAD BLDG,NonResidential,695000335,2901 3RD AVE,SEATTLE,WA,98121,47.6182,-122.352,DOWNTOWN,7,1982,6,1,396626,272410,124216,94,33,33,9442871,9442871,92.30000305,92.30000305,Office,Office,286524,Parking,114580,NA,,2767547,0,0,Compliant,No Issue,9442870,0,39.1,0.1
"376,2021,5TH & BELL BUILDING,NonResidential,696000175,2301 5TH AVE,SEATTLE,WA,98121,47.61598,-122.34369,DOWNTOWN,1,2002,6,1,287471,203880,83591,81,48.40000153,48.40000153,9752792,9752792,135.3999939,135.3999939,Office,Office,198453,Parking,81943,""Personal Services (Health/Beauty, Dry Cleaning, etc)"",3211,2858380,0,0,Not Compliant,Account Requires Verification,9752793,0,40.3,0.2"
377,2021,SIXTH & WALL BUILDING (521 WALL ST),NonResidential,697000064,521 WALL ST,SEATTLE,WA,98121,47.61734,-122.34434,DOWNTOWN,1,1947,3,1,192630,144118,48512,,33.59999847,34,5054376,4994583,91,92.19999695,Mixed Use Property,College/University,95462,Office,53016,Parking,48199,1403801,0,2646,Compliant,No Issue,4789769,264608,33.9,0.2
379,2021,3101 WESTERN (FORMERLY AIRBORNE BLDG),NonResidential,698000040,3101 WESTERN AVE,SEATTLE,WA,98121,47.6176,-122.35686,DOWNTOWN,1,1984,8,1,253103,191117,61986,2,199.1999969,199.1999969,39289116,39289116,557.9000244,557.9000244,Office,Office,179393,Parking,57281,Data Center,17797,11514980,0,0,Compliant,No Issue,39289112,0,162.5,0.9
381,2021,QFC HOLMAN ROAD,NonResidential,767000060,9999 HOLMAN RD NW,SEATTLE,WA,98177,47.7019,-122.36374,NORTHWEST,1,1956,1,1,60880,60880,0,81,185.1999969,184.5,11377877,11423292,381.7999878,381.2999878,Supermarket/Grocery Store,Supermarket/Grocery Store,61666,NA,,NA,,1937433,0,47674,Compliant,No Issue,6610521,4767355,280.5,4.6
382,2021,COLLINS BUILDING,NonResidential,939000025,520 2ND AVE,SEATTLE,WA,98104,47.60227,-122.33202,DOWNTOWN,1,1900,5,1,50176,50176,0,,52.5,52.5,2630718,2630718,141,141,Office,Office,37518,Other,8329,Restaurant,4253,720477,0,1724,Compliant,No Issue,2458269,172450,19.3,0.4
383,2021,SMITH TOWER,NonResidential,939000060,506 2ND AVE,SEATTLE,WA,98104,47.60198,-122.33174,DOWNTOWN,1,1912,42,1,304346,304346,0,,55.5,56.70000076,17313524,16947722,111,113.1999969,Office,Office,289826,Food Service,10942,Retail Store,3062,2718867,1053336,69834,Compliant,No Issue,9276774,6983413,496.7,1.6
384,2021,DAWN FOOD PRODUCTS,NonResidential,1800113,6901 FOX AVE S,SEATTLE,WA,98108,47.54066,-122.33023,GREATER DUWAMISH,1,1977,1,1,128800,128800,0,66,14.69999981,15,1934379,1903208,21.5,21.79999924,Non-Refrigerated Warehouse,Non-Refrigerated Warehouse,129200,NA,,NA,,130971,0,14875,Compliant,No Issue,446874,1487505,80.8,0.6
385,2021,SKINNER BLDG,NonResidential,2400002,1326 5TH AVE,SEATTLE,WA,98101,47.60932,-122.33388,DOWNTOWN,1,1927,8,1,226061,226061,0,91,33.40000153,33.40000153,7542681,7542681,76.5,76.5,Office,Office,166919,Performing Arts,39355,Retail Store,19787,1510212,2389838,0,Compliant,No Issue,5152843,0,219.7,1
386,2021,IBM BUILDING,NonResidential,2400002,1200 5TH AVE,SEATTLE,WA,98101,47.60842,-122.33305,DOWNTOWN,7,1964,22,1,336330,269900,66430,79,58.09999847,58.40000153,15400556,15323481,138.6000061,139,Office,Office,256299,Parking,66430,Other - Restaurant/Bar,7438,3325681,4053334,0,Compliant,No Issue,11347224,0,383.4,1.4
387,2021,PUGET SOUND PLAZA,NonResidential,2400002,1325 4TH AVE,SEATTLE,WA,98101,47.60869,-122.33588,DOWNTOWN,1,1960,21,1,552176,298426,253750,61,96.90000153,97.90000153,29220670,28919214,190,191.1999969,Office,Office,286538,Parking,197750,Other - Education,11888,4018674,15508954,0,Compliant,No Issue,13711716,0,1344.1,4.5
388,2021,RAINIER TOWER,NonResidential,7137830040,1301 5TH AVE,SEATTLE,WA,98101,47.60896,-122.33481,DOWNTOWN,1,1976,42,1,476871,476871,0,60,73.69999695,74.40000153,35602280,35250112,206.1999969,208.3000031,Office,Office,478569,NA,,NA,,10434430,0,0,Compliant,No Issue,35602275,0,147.3,0.3
389,2021,FAIRMONT OLYMPIC HOTEL,NonResidential,7137830000,411 UNIVERSITY ST,SEATTLE,WA,98101,47.60804,-122.33391,DOWNTOWN,1,1923,12,1,544174,544174,0,78,73,72.80000305,39462496,39607996,139.5,139.1999969,Hotel,Hotel,542305,NA,,NA,,5187403,19968270,17948,Compliant,No Issue,17699419,1794807,1826.1,3.4
390,2021,LOWES & AMAZON W,NonResidential,3600052,2700 RAINIER AVE S,SEATTLE,WA,98144,47.57936,-122.29744,SOUTHEAST,1,1980,2,1,291940,291940,0,94,32.09999847,33.09999847,9661998,9382635,79.90000153,82.09999847,Retail Store,Retail Store,191940,Parking,61800,Manufacturing/Industrial Plant,50000,2315114,0,17628,Compliant,No Issue,7899169,1762829,126.3,0.4
391,2021,THAW BUILDING,NonResidential,7400015,8300 MILITARY RD S,SEATTLE,WA,98108,47.52871,-122.29443,GREATER DUWAMISH,1,1970,1,1,91360,91360,0,52,54.70000076,55.59999847,5083210,4995646,106.5,107.5999985,Mixed Use Property,Non-Refrigerated Warehouse,38627,Office,35508,Distribution Center,17225,753117,0,25136,Compliant,No Issue,2569635,2513575,144.1,1.6
"392,2021,""LINDEN BUILDING (Formerly EUROPEAN SOAPS, LTD)"",NonResidential,164000120,920 N 137TH ST,SEATTLE,WA,98133,47.72912,-122.34677,NORTHWEST,1,1960,1,1,52311,52311,0,98,7.800000191,8.199999809,426859,410216,9.199999809,9.5,Non-Refrigerated Warehouse,Non-Refrigerated Warehouse,52311,NA,,NA,,8497,0,3979,Compliant,No Issue,28992,397867,21.3,0.4"
393,2021,500 YALE AVENUE NORTH,NonResidential,209000030,500 YALE AVE N,SEATTLE,WA,98109,47.62323,-122.33028,LAKE UNION,1,2009,5,1,141131,71421,69710,94,35.29999924,35.70000076,2550169,2518546,98.69999695,100,Office,Office,71421,Parking,69710,NA,,747412,0,0,Compliant,No Issue,2550169,0,10.6,0.1
394,2021,REPUBLICAN BUILDING,NonResidential,209000050,501 EASTLAKE AVE E,SEATTLE,WA,98109,47.62333,-122.3296,LAKE UNION,1,2001,5,1,176532,106465,70067,48,90.5,90.5,9638958,9638958,247.6999969,247.6999969,Office,Office,106465,Parking,70067,NA,,2722416,0,3501,Compliant,No Issue,9288883,350076,57,0.5
395,2021,FERGUSON TERMINAL,NonResidential,467000050,4205 9TH AVE NW,SEATTLE,WA,98107,47.65825,-122.3683,BALLARD,1,1973,1,1,52500,52500,0,12,49.70000076,50.40000153,2786306,2747932,113.3000031,114.0999985,Non-Refrigerated Warehouse,Non-Refrigerated Warehouse,49395,Office,5853,Parking,0,565480,0,8569,Not Compliant,Default Data,1929417,856889,53.5,1
396,2021,SALMON BAY CENTER 5301,NonResidential,467000420,5301 SHILSHOLE AVE NW,SEATTLE,WA,98107,47.66587,-122.38476,BALLARD,1,1959,2,1,54820,54820,0,49,73.19999695,74.59999847,4090280,4015208,121.5,122.9000015,Non-Refrigerated Warehouse,Non-Refrigerated Warehouse,33646,Office,21174,NA,,409517,0,26930,Compliant,No Issue,1397272,2693007,148.8,2.7
398,2021,2601 ELLIOTT AVE,NonResidential,653000250,2601 ELLIOTT AVE,SEATTLE,WA,98121,47.61429,-122.35263,DOWNTOWN,1,1916,6,1,350310,350310,0,80,37.59999847,37.5,12732231,12773975,105.3000031,104.9000015,Office,Office,303797,College/University,26900,Restaurant,7666,3731604,0,0,Not Compliant,Portfolio Manager Account Not Shared,12732233,0,52.7,0.2
399,2021,WASH MUTUAL TOWER (1201 THIRD AVE),NonResidential,1974700120,1201 3RD AVE,SEATTLE,WA,98101,47.60723,-122.33611,DOWNTOWN,7,1988,55,1,1400000,1115000,285000,77,42.79999924,43.09999847,48650636,48249388,116.6999969,117.5999985,Office,Office,1119004,Parking,264481,Restaurant,9571,13615350,2057374,1377,Compliant,No Issue,46455574,137697,370.3,0.3
401,2021,WASHINGTON ATHLETIC CLUB,NonResidential,1975700025,1325 6TH AVE,SEATTLE,WA,98101,47.60968,-122.33379,DOWNTOWN,1,1930,21,1,305548,305548,0,94,82.80000305,83.30000305,24542104,24384560,149.8000031,150.3999939,Fitness Center/Health Club/Gym,Fitness Center/Health Club/Gym,185292,Hotel,67822,Restaurant,31949,2761197,13404404,17165,Not Compliant,Default Data,9421204,1716496,1242.8,4.1
402,2021,US BANK CENTER,NonResidential,1975700080,1420 5TH AVE,SEATTLE,WA,98101,47.61054,-122.33466,DOWNTOWN,1,1989,46,1,1536606,1023998,512608,86,37.59999847,38.09999847,41546432,41006956,105.1999969,106.5999985,Office,Office,1034940,Parking,377046,Other,47271,12176560,0,0,Compliant,No Issue,41546423,0,171.9,0.2
403,2021,LOGAN BUILDING,NonResidential,1975700095,500 UNION ST,SEATTLE,WA,98101,47.61003,-122.33452,DOWNTOWN,1,1958,10,1,135918,135918,0,87,42,42.59999847,5780731,5692192,84.09999847,85.09999847,Office,Office,123643,Other - Restaurant/Bar,6905,Financial Office,5044,840498,2912951,0,Compliant,No Issue,2867780,0,253.7,1.9
404,2021,O'SHEA BUILDING/GAP,NonResidential,1975700115,1524 5TH AVE,SEATTLE,WA,98101,47.61159,-122.33601,DOWNTOWN,1,1914,4,1,79957,79957,0,86,32.20000076,32.20000076,2571253,2571253,90,90,Office,Office,62287,Retail Store,17670,NA,,753591,0,0,Compliant,No Issue,2571253,0,10.6,0.1
405,2021,DECATUR BUILDING,NonResidential,1975700125,1511 6TH AVE,SEATTLE,WA,98101,47.61166,-122.33528,DOWNTOWN,1,1921,4,1,127268,127268,0,78,42.70000076,42.70000076,5439766,5439766,114.4000015,114.4000015,Office,Office,71284,Retail Store,44122,Other - Restaurant/Bar,11862,1475736,215832,1887,Compliant,No Issue,5035211,188721,48.8,0.4
406,2021,520 PIKE BUILDING,NonResidential,1975700160,520 PIKE ST,SEATTLE,WA,98101,47.61125,-122.33494,DOWNTOWN,7,1983,29,1,500000,500000,0,86,35.5,36.40000153,15507104,15121652,99.40000153,102,Office,Office,411301,Parking,80005,Retail Store,14528,4544872,0,0,Compliant,No Issue,15507103,0,64.2,0.1
408,2021,4PIKE,NonResidential,1975700235,1424 4TH AVE,SEATTLE,WA,98101,47.61005,-122.3361,DOWNTOWN,1,1926,10,1,132326,132326,0,88,29,28.89999962,3820043,3831968,78,77.69999695,Office,Office,122998,Retail Store,9328,NA,,1043541,259482,0,Compliant,No Issue,3560562,0,36.3,0.3
409,2021,WASHINGTON FEDERAL BUILDING,NonResidential,1975700240,425 PIKE ST,SEATTLE,WA,98101,47.61033,-122.3357,DOWNTOWN,7,1984,6,1,109830,96630,13200,53,59,59.09999847,5125600,5116536,165.3000031,165.6000061,Office,Office,79167,Parking,12877,Retail Store,5530,1502228,0,0,Compliant,No Issue,5125602,0,21.2,0.2
410,2021,MOTIF SEATTLE,NonResidential,1975700255,1414 4TH AVE,SEATTLE,WA,98101,47.60996,-122.33572,DOWNTOWN,1,1973,19,1,332067,272787,59280,34,96.80000305,96.5,26324088,26417748,203.1000061,202.6999969,Hotel,Hotel,272787,Parking,59280,NA,,4365218,10417142,10128,Compliant,No Issue,14894124,1012823,980.1,3.6
411,2021,JOSHUA GREEN BUILDING,NonResidential,1975700305,1425 4TH AVE,SEATTLE,WA,98101,47.60991,-122.33687,DOWNTOWN,1,1910,10,1,109266,109266,0,80,49.09999847,49.29999924,5387543,5363846,115.6999969,116,Office,Office,98408,Restaurant,10858,NA,,1148794,1006734,4611,Compliant,No Issue,3919685,461124,124.3,1.1
412,2021,MIKEN BLDG.,NonResidential,1975700330,1417 4TH AVE,SEATTLE,WA,98101,47.60953,-122.33647,DOWNTOWN,1,1920,8,1,60660,60660,0,98,18.5,18.5,1140827,1140827,51.90000153,51.90000153,Office,Office,56567,Retail Store,5000,NA,,334357,0,0,Compliant,No Issue,1140827,0,4.7,0.1
413,2021,VANCE BUILDING,NonResidential,1975700340,1402 3RD AVE,SEATTLE,WA,98101,47.60902,-122.33674,DOWNTOWN,1,1929,14,1,137500,137500,0,99,24,24.20000076,3342720,3315540,42.29999924,42.59999847,Office,Office,138176,NA,,NA,,341426,2177774,0,Compliant,No Issue,1164946,0,185.6,1.3
414,2021,1411 BUILDING,NonResidential,1975700345,1411 4TH AVE,SEATTLE,WA,98101,47.60923,-122.33625,DOWNTOWN,1,1929,15,1,151039,151039,0,75,43.79999924,44.5,5973132,5885812,122.6999969,124.5,Office,Office,134294,NA,,NA,,1750625,0,0,Compliant,No Issue,5973132,0,24.7,0.2
415,2021,CENTURY SQUARE,NonResidential,1975700390,1501 4TH AVE,SEATTLE,WA,98101,47.61022,-122.33745,DOWNTOWN,1,1985,30,1,755000,620338,134662,68,58.70000076,59.40000153,39780372,39359052,146.8000031,148.5,Office,Office,643083,Parking,126891,Other,12589,9666436,305101,64934,Compliant,No Issue,32981880,6493392,506.6,0.8
417,2021,MELBOURNE TOWER OFF,NonResidential,1975700465,1511 3RD AVE,SEATTLE,WA,98101,47.60987,-122.33824,DOWNTOWN,7,1927,10,1,130893,130893,0,90,45,45,5771632,5771632,125.9000015,125.9000015,Office,Office,101013,Supermarket/Grocery Store,27377,NA,,1691569,0,0,Compliant,No Issue,5771633,0,23.9,0.2
418,2021,POLL BUILDING,NonResidential,1975700580,110 UNION ST,SEATTLE,WA,98101,47.60821,-122.33899,DOWNTOWN,1,1910,5,1,79920,79920,0,,40.90000153,40.90000153,3269347,3269347,89.40000153,89.40000153,Office,Office,71015,Parking,13320,Retail Store,4645,621186,0,11499,Compliant,No Issue,2119486,1149861,69.8,0.9
419,2021,MAIN MARKET,Campus,1976200205,1501 PIKE PL,SEATTLE,WA,98101,47.60881,-122.34119,DOWNTOWN,1,1908,4,1,137400,137400,0,,86.09999847,86.09999847,10476004,10476004,205.8000031,205.8000031,Mixed Use Property,Retail Store,44078,Other - Restaurant/Bar,19182,Multifamily Housing,14380,2351256,0,24535,Compliant,No Issue,8022485,2453519,163.5,1.2
420,2021,MERIDIAN CENTER WEST,NonResidential,1976700045,1500 6TH AVE,SEATTLE,WA,98101,47.61164,-122.33446,DOWNTOWN,7,1996,6,1,147852,61423,86429,,84.40000153,84.40000153,5185310,5185310,203.5,203.5,Parking,Parking,64821,Retail Store,40629,Other - Restaurant/Bar,13039,1181710,0,11533,Compliant,No Issue,4031995,1153317,77.9,1.3
421,2021,MERIDIAN CENTER EAST,NonResidential,1976700055,614 PIKE ST,SEATTLE,WA,98101,47.61185,-122.33421,DOWNTOWN,7,1996,4,1,267335,100375,166960,,80,80.69999695,8096175,8033024,185.3000031,185.8999939,Parking,Parking,166960,Movie Theater,72975,Other - Restaurant/Bar,27400,1702064,0,22887,Compliant,No Issue,5807442,2288733,145.6,1.5
422,2021,TWO UNION SQUARE,NonResidential,1976700125,601 UNION ST,SEATTLE,WA,98101,47.61043,-122.33206,DOWNTOWN,1,1989,56,1,1605578,1215718,389860,94,35.90000153,36.20000076,43988528,43589020,97.40000153,98.19999695,Office,Office,1180016,Parking,389860,Retail Store,30744,12226260,1534930,7376,Compliant,No Issue,41715999,737586,339.2,0.3
423,2021,ONE UNION SQUARE,NonResidential,1976700155,600 UNIVERSITY ST,SEATTLE,WA,98101,47.60967,-122.33229,DOWNTOWN,1,1980,36,1,794592,757986,36606,99,29,29.39999962,22253604,21977562,79.90000153,80.90000153,Office,Office,735372,Parking,36606,Retail Store,12885,6353942,0,5740,Compliant,No Issue,21679650,573953,120.2,0.2
424,2021,PARK PLACE OFFICE BLDG,NonResidential,1976700185,1200 6TH AVE,SEATTLE,WA,98101,47.60909,-122.33202,DOWNTOWN,1,1971,21,1,456304,353366,102938,70,50.40000153,51.70000076,18143014,17698378,141.1999969,144.6999969,Office,Office,340620,Parking,102938,Pre-school/Daycare,4674,5317413,0,0,Compliant,No Issue,18143013,0,75.1,0.2
"425,2021,""101 Stewart Street, LLC"",NonResidential,1977200020,101 STEWART ST,SEATTLE,WA,98101,47.61029,-122.34089,DOWNTOWN,1,1986,12,1,115857,100717,15140,90,32.20000076,32.20000076,3247993,3247993,90.30000305,90.30000305,Office,Office,100717,Parking,15140,NA,,951932,0,0,Compliant,No Issue,3247993,0,13.4,0.1"
426,2021,PORT OF SEATTLE - WORLD TRADE CENTER-WEST,NonResidential,1977200135,2200 ALASKAN WAY,SEATTLE,WA,98121,47.61116,-122.34748,DOWNTOWN,1,1999,4,1,87500,70000,17500,76,56.20000076,56.20000076,4035913,4035913,157.5,157.5,Office,Office,70090,Other,1672,NA,,1182858,0,0,Compliant,No Issue,4035911,0,16.7,0.2
427,2021,WORLD TRADE CENTER-EAST,NonResidential,1977200187,2211 ELLIOTT AVE,SEATTLE,WA,98121,47.6117,-122.34778,DOWNTOWN,1,1998,11,1,374405,189629,184776,65,65.40000153,65.40000153,12605133,12605133,183.1000061,183.1000061,Office,Office,175663,Laboratory,17135,NA,,3694353,0,0,Compliant,No Issue,12605132,0,52.1,0.3
428,2021,CENTURYLINK: LENORA MAIN,NonResidential,1977200740,120 LENORA ST,SEATTLE,WA,98121,47.61252,-122.34351,DOWNTOWN,1,1985,12,1,193500,155500,38000,,87,87,12763454,12763454,243.6000061,243.6000061,Other,Other,146689,NA,,NA,,3740754,0,0,Compliant,No Issue,12763453,0,52.8,0.3
429,2021,TERMINAL SALES OFFICE BUILDING,NonResidential,1977200920,1932 1ST AVE,SEATTLE,WA,98101,47.61108,-122.34217,DOWNTOWN,1,1923,11,1,102846,102846,0,77,40.09999847,40.5,4105516,4060776,70.19999695,70.69999695,Office,Office,93879,Retail Store,7500,NA,,409772,2707376,0,Compliant,No Issue,1398140,0,230.5,2.2
430,2021,MARSHALL BUILDING/DAHLIA LOUNGE,NonResidential,1977201245,2013 4TH AVE,SEATTLE,WA,98121,47.61304,-122.34059,DOWNTOWN,1,1925,4,1,52800,52800,0,89,31.20000076,31.5,1661726,1649318,74.09999847,74.30000305,Office,Office,39840,Restaurant,12960,NA,,364936,0,4166,Compliant,No Issue,1245161,416565,27.3,0.5
432,2021,SECURITIES & MARKET BUILDING CAMPUS,Campus,1977201315,1904 3RD AVE,SEATTLE,WA,98101,47.61216,-122.33951,DOWNTOWN,1,1913,10,3,448832,268832,180000,,36.20000076,36.40000153,9063539,9013657,78.30000305,78.5,Office,Office,239561,Parking,180928,Retail Store,9435,1587510,3646956,0,Compliant,No Issue,5416584,0,325.1,1.2
433,2021,300 PINE STREET,NonResidential,8634230000,300 PINE ST,SEATTLE,WA,98101,47.6113,-122.33844,DOWNTOWN,1,1929,8,1,861702,861702,0,,,,,,,,Office,Office,578620,Retail Store,283082,NA,,,,,Not Compliant,Missing 2021 EUI or Electricity Data,16891379,0,0,0
434,2021,VIRGINIA MASON - BENAROYA RESEARCH INSTITUTE,NonResidential,1978200010,1201 9TH AVE,SEATTLE,WA,98101,47.61,-122.32922,EAST,1,1999,5,1,206950,109550,97400,,85.90000153,86.09999847,16548631,16505577,224.1999969,224.5,Laboratory,Laboratory,192224,NA,,NA,,4265889,1993414,0,Compliant,No Issue,14555213,4,225.7,2.1
435,2021,SEATTLE CONVENTION CENTER,NonResidential,1978200105,800 CONVENTION PL,SEATTLE,WA,98101,47.61195,-122.33167,DOWNTOWN,1,1990,6,1,1632962,946212,686750,,50.5,50.90000153,54539952,54159508,113.9000015,114.3000031,Convention Center,Convention Center,1072000,Parking,686750,NA,,10471280,18173758,6382,Compliant,No Issue,35728007,638182,1690.3,1.8
436,2021,VIRGINIA MASON - Health Resources Building,NonResidential,1978200280,909 UNIVERSITY ST,SEATTLE,WA,98101,47.61048,-122.32837,EAST,1,1988,9,1,68500,68500,0,,57.29999924,57.20000076,4319825,4327502,127.3000031,127.0999985,Outpatient Rehabilitation/Physical Therapy,Outpatient Rehabilitation/Physical Therapy,75513,NA,,NA,,808272,1561999,0,Compliant,No Issue,2757826,0,141.1,2.1
437,2021,VIRGINIA MASON- Lindeman Pavilion,NonResidential,1978200280,1201 TERRY AVE,SEATTLE,WA,98101,47.61048,-122.32837,EAST,3,1945,3,1,266000,162000,104000,67,92.69999695,92.59999847,14818289,14835420,221.5,221.3999939,Medical Office,Medical Office,160066,Parking,97721,NA,,3309928,781910,27429,Compliant,No Issue,11293474,2742903,257.3,1.6
438,2021,1101 MADISON TOWER,NonResidential,1978200625,1101 MADISON ST,SEATTLE,WA,98104,47.60921,-122.32425,EAST,1,1992,14,1,690158,282363,407795,63,102.5999985,104,28113698,27733580,287.2000122,291.1000061,Medical Office,Medical Office,270384,Parking,270383,NA,,8239653,0,0,Compliant,No Issue,28113696,0,116.3,0.4
443,2021,ELLIOTT BAY OFFICE PARK,NonResidential,1992200170,300 ELLIOTT AVE W,SEATTLE,WA,98119,47.62177,-122.36158,MAGNOLIA / QUEEN ANNE,1,1981,5,1,275734,237282,38452,98,24.5,24.79999924,5778600,5718659,58.90000153,59.20000076,Office,Office,232980,Parking,34783,NA,,1293888,0,13639,Compliant,No Issue,4414746,1363852,90.7,0.4
444,2021,FEDEX VAN TERMINAL,NonResidential,2024049016,651 S ALASKA ST,SEATTLE,WA,98108,47.56064,-122.32522,GREATER DUWAMISH,2,2001,1,1,123061,123061,0,26,33.20000076,33.70000076,4147128,4080375,67.40000153,68,Non-Refrigerated Warehouse,Non-Refrigerated Warehouse,123061,NA,,NA,,671553,0,18558,Compliant,No Issue,2291338,1855790,108,0.9
446,2021,WASHINGTON STATE FERRIES,NonResidential,2024049060,6000 6TH AVE S,SEATTLE,WA,98108,47.54868,-122.3255,GREATER DUWAMISH,1,1963,1,1,59090,59090,0,23,76.5,76,4490358,4518278,96.40000153,95.90000153,Distribution Center,Distribution Center,47570,Office,11520,NA,,159154,0,39473,Compliant,No Issue,543032,3947326,211.9,3.6
447,2021,GTE SYLVANIA,NonResidential,2024049061,750 S MICHIGAN ST,SEATTLE,WA,98108,47.5471,-122.32406,GREATER DUWAMISH,2,1963,1,1,106000,106000,0,48,20.10000038,20.29999924,2156988,2126016,36.70000076,37,Non-Refrigerated Warehouse,Non-Refrigerated Warehouse,106000,NA,,NA,,278242,0,12076,Compliant,No Issue,949363,1207625,68.1,0.6
449,2021,1551 EASTLAKE BLDG.,NonResidential,2107700210,1551 EASTLAKE AVE E,SEATTLE,WA,98102,47.63349,-122.32634,LAKE UNION,1,1962,3,1,158600,120200,38400,8,191.1999969,191,22445016,22460608,480.2000122,480,Office,Office,97498,Parking,32821,Laboratory,20000,5499079,0,36822,Compliant,No Issue,18762858,3682157,273.2,2.3
451,2021,FRYE DISTRIBUTION CENTER,NonResidential,2136200695,660 S OTHELLO ST,SEATTLE,WA,98108,47.53764,-122.3232,GREATER DUWAMISH,1,1960,1,1,119661,119661,0,,,,,,,,Distribution Center,Distribution Center,119661,NA,,NA,,,,,Compliant,No Issue,402937,97222,0,0
452,2021,1144 EASTLAKE BUILDING,NonResidential,2163901080,1144 EASTLAKE AVE E,SEATTLE,WA,98109,47.62958,-122.32826,LAKE UNION,1,2001,7,1,139200,94472,44728,82,50.70000076,50.70000076,4785564,4785564,141.8000031,141.8000031,Office,Office,94472,Parking,44728,NA,,1402568,0,0,Compliant,No Issue,4785562,0,19.8,0.2
